id,name,latitude,longitude,address,hash_tags,unique_page
1,Greasy Spoon,45.521063,-73.594379,160 Rue Laurier O,"Comfort Food,Burgers,Tartare,Fish & Chips,BBQ,Seafood/Fish",https://www.restomontreal.ca/resto/greasy-spoon-mile-end/2650/en/
2,Pomodoro Steak & Bar,45.532661,-73.614272,6834 Boulevard St-Laurent,"Steakhouse,Italian,Pizza,Pasta",https://www.restomontreal.ca/resto/pomodoro-steak-bar-little-italy/5130/en/
3,Artigiani Pizzeria Cucina,45.525003,-73.584805,4657 Rue Saint-Denis,"Pizza,Italian,Pasta",https://www.restomontreal.ca/resto/artigiani-pizzeria-cucina-le-plateau/1889/en/
4,Kam Shing Van Horne Restaurant,45.494826,-73.637667,4771 Avenue Van Horne,"Chinese,Szechuan,Asian",https://www.restomontreal.ca/resto/kam-shing-van-horne-restaurant-notre-dame-de-grace-ndg/1036/en/
5,Brasseurs du Monde - Brasserie Quartier Latin,45.514709,-73.562205,1567 Rue Saint-Denis,"Burgers,Tartare,Poutine,Comfort Food,BBQ,Chicken Wings",https://www.restomontreal.ca/resto/brasseurs-du-monde-brasserie-quartier-latin-latin-quarter/10690/en/
6,Isola Bella,45.724,-73.679593,3437 Boulevard de la Piniere,"Tartare,Grill,Fusion,Market,Seafood/Fish,Regional",https://www.restomontreal.ca/resto/isola-bella-terrebonne-lachenaie/5407/en/
7,La Goulée - Taverne Gourmande,45.736886,-73.448423,420 Rue Notre-Dame,"Burgers,Tartare,Comfort Food,Fish & Chips,BBQ,Poutine",https://www.restomontreal.ca/resto/la-goulee-taverne-gourmande-repentigny/13765/en/
8,Brasserie des Rapides,45.427346,-73.608577,7852 Boulevard Champlain,"Steakhouse,Burgers,Pasta,Pizza,Grill,Chicken Wings",https://www.restomontreal.ca/resto/brasserie-des-rapides-lasalle/91/en/
9,La Tomate Blanche,45.441766,-73.439778,1725 Avenue des Lumières #205,"Italian,Pizza,Grill,Pasta,Market,Salads",https://www.restomontreal.ca/resto/la-tomate-blanche-brossard/2158/en/
10,Piatti Pizzeria,45.615047,-73.680666,2829 Avenue des Aristocrates,"Pizza,Italian,Pasta,Gluten-free Options",https://www.restomontreal.ca/resto/piatti-pizzeria-duvernay/12951/en/
11,La Colonie Thai,45.502952,-73.51362,10 Boulevard Desaulniers,"Thai,Asian",https://www.restomontreal.ca/resto/la-colonie-thai-saint-lambert/7521/en/
12,Les Soeurs Grises - Bistro-Brasserie,45.498881,-73.553722,32 Rue McGill,"Bistro,Tapas,Mexican,BBQ,Burgers,Poutine",https://www.restomontreal.ca/resto/les-soeurs-grises-bistro-brasserie-old-montreal/4915/en/
13,Gaspar Brasserie Française,45.506321,-73.553018,89 Rue de La Commune E,"French,Canadian,Bistro,Tartare,Vegetarian",https://www.restomontreal.ca/resto/gaspar-brasserie-francaise-old-montreal/4729/en/
14,Gourmeyeur,45.568676,-73.76883,3535 Autoroute Jean-Noël Lavoie O,"Bistro,Café,Deli,Tartare,Healthy,Fish & Chips",https://www.restomontreal.ca/resto/gourmeyeur-chomedey/13054/en/
15,Amato,45.614867,-73.785084,192 Boulevard Ste Rose,"Italian,Seafood/Fish,Grill,Pasta",https://www.restomontreal.ca/resto/amato-sainte-rose/4655/en/
16,Panama Rotisserie,45.526458,-73.624764,789 Rue Jean-Talon O,"Greek,Grill,Mediterranean,Seafood/Fish,BBQ,Rotisserie",https://www.restomontreal.ca/resto/panama-rotisserie-town-of-mont-royal/2854/en/
17,Restaurant Noraka,45.497979,-73.647248,4820 Rue Jean-Talon O,"Thai,Kosher,Asian,Chinese,Grill,Burgers",https://www.restomontreal.ca/resto/restaurant-noraka-cote-des-neiges/14727/en/
18,Boqueria,45.503769,-73.553999,121 Rue de la Commune O,"Spanish,Tapas,Mediterranean,Seafood/Fish",https://www.restomontreal.ca/resto/boqueria-old-montreal/17801/en/
19,Rotisserie Chalet Bar-B-Q,45.472699,-73.6111,5456 Rue Sherbrooke O,"BBQ,Rotisserie,Chicken Wings,Poutine",https://www.restomontreal.ca/resto/rotisserie-chalet-bar-b-q-cote-des-neiges/261/en/
20,Bellepros,45.611137,-73.70071,5600 Boulevard Robert-Bourassa,"Burgers,Poutine,Smoked Meat,Sandwiches,Breakfast,Casse-Croute (Snack Bar)",https://www.restomontreal.ca/resto/bellepros-duvernay/12058/en/
21,Le Côte - Cuisine & Bar - Eastman,45.30227,-72.304886,4 Chemin George Bonnallie,"Steakhouse,Seafood/Fish,Grill,Market,Salads",https://www.restomontreal.ca/resto/le-cote-cuisine-bar-eastman-eastman/6611/en/
22,East Pan Asiatique,45.502746,-73.569205,1250 Boulevard Robert-Bourrassa,"Asian,Chinese,Japanese,Thai,Korean,Ramen",https://www.restomontreal.ca/resto/east-pan-asiatique-downtown/10330/en/
23,Curry Karim,45.532141,-73.662543,1565 Rue de Louvain O,"Indian,Grill,Vegetarian",https://www.restomontreal.ca/resto/curry-karim-ahuntsic-cartierville/17333/en/
24,ZIBO! Restaurant-Bar,45.492867,-73.557064,90 Rue Peel,"Californian,Grill,Salads,Pasta,Pizza,Burgers",https://www.restomontreal.ca/resto/zibo-restaurant-bar-griffintown/7614/en/
25,Pizzeria Gusto,45.5818,-73.59318,5152 Rue Jarry E,"Italian,Pizza,Pasta,Charcuterie",https://www.restomontreal.ca/resto/pizzeria-gusto-anjou-st-leonard/14009/en/
26,L'Évidence,45.519634,-73.572848,3817 Rue Saint-Denis,"Breakfast,Grill,Mediterranean,Salads,Bistro,Burgers",https://www.restomontreal.ca/resto/l-evidence-le-plateau/2985/en/
27,Restaurant Jano,45.51621,-73.577284,3883 Boulevard St-Laurent,"Portuguese,Grill,Seafood/Fish,Tapas",https://www.restomontreal.ca/resto/restaurant-jano-le-plateau/1549/en/
28,Sushi Taxi,45.567263,-73.727972,1694 Boulevard St-Martin O,"Sushi,Asian,Vegetarian,Poke Bowl,Gluten-free Options",https://www.restomontreal.ca/resto/sushi-taxi-chomedey/6567/en/
29,RossoCielo Restaurant & Bar,45.557264,-73.721736,500 Rue Lucien Paiement,"Italian,Pasta,Pizza,Grill,Breakfast",https://www.restomontreal.ca/resto/rossocielo-restaurant-bar-laval-des-rapides/17790/en/
30,Mythik,45.496039,-73.569309,1909 Avenue des Canadiens-de-Montréal,"Market,Regional,Grill,Pasta,Seafood/Fish,Tartare",https://www.restomontreal.ca/resto/mythik-downtown/17442/en/
31,40 Westt Steakhouse,45.481931,-73.79601,2305 Route Transcanadienne,"American,Canadian,Mediterranean,Seafood/Fish,Steakhouse,Salads",https://www.restomontreal.ca/resto/40-westt-steakhouse-pointe-claire/351/en/
32,Le Shack Du Pêcheur Express,45.333362,-72.648101,10 Boulevard de Bromont,"Seafood/Fish,Fish & Chips,Grill,Casse-Croute (Snack Bar),Tartare,Burgers",https://www.restomontreal.ca/resto/le-shack-du-pecheur-express-bromont/14984/en/
33,Munchiz Exotique,45.555916,-73.748095,3274 Boulevard St-Martin O,"Snacks & Treats,Desserts & Sweets,Bubble tea",https://www.restomontreal.ca/resto/munchiz-exotique-chomedey/15154/en/
34,Sésame,45.502071,-73.559597,380 Rue St-Jacques O,"Asian,Fusion,Chinese,Japanese,Thai,Vegetarian",https://www.restomontreal.ca/resto/sesame-old-montreal/4812/en/
35,SHAKER Cuisine & Mixologie,45.640147,-72.962191,3200 Avenue Cusson,"Burgers,Tartare,Comfort Food,Poke Bowl,Poutine,Salads",https://www.restomontreal.ca/resto/shaker-cuisine-mixologie-saint-hyacinthe/13883/en/
36,Maison Publique McLean's,45.500205,-73.573628,1420 Rue Peel,"Pub Food,Comfort Food,Casse-Croute (Snack Bar),Burgers,Chicken Wings,Poutine",https://www.restomontreal.ca/resto/maison-publique-mcleans-downtown/17601/en/
37,La Bêtise,45.465764,-73.56696,3807 Rue Wellington,"Tapas,Creative,Tartare,Poutine,Fusion,Burgers",https://www.restomontreal.ca/resto/la-betise-verdun/13403/en/
38,État-Major,45.549447,-73.541968,4005 Rue Ontario E,"Bistro,French,Market,Regional,Tartare",https://www.restomontreal.ca/resto/etat-major-hochelaga-maisonneuve/7121/en/
39,Rouch Sandwicherie,45.5206,-73.586112,35 avenue du Mont-Royal E,"Sandwiches,Comfort Food",https://www.restomontreal.ca/resto/rouch-sandwicherie-le-plateau/19896/en/
40,La Verità,45.485138,-73.802944,11680 Boulevard de Salaberry,"Italian,Grill,Pasta",https://www.restomontreal.ca/resto/la-verita-dollard-des-ormeaux/2468/en/
41,L'Ambroisie et L'Espace Canal,45.475196,-73.580313,"4020 Rue St-Ambroise, porte #140","French,International,Breakfast,Bistro,Tartare,Market",https://www.restomontreal.ca/resto/lambroisie-et-lespace-canal-saint-henri/1568/en/
42,Le Mista,45.569963,-73.199649,955 Rue Laurier,"Italian,Mediterranean,Pasta,Healthy,Vegetarian",https://www.restomontreal.ca/resto/le-mista-beloeil/2359/en/
43,Sésame,45.556845,-73.722139,1955 Rue Claude-Gagné,"Asian,Fusion,Chinese,Japanese,Thai,Vegetarian",https://www.restomontreal.ca/resto/sesame-laval-des-rapides/15682/en/
44,Le Shack Du Pêcheur,45.592131,-73.430894,1052 Rue Lionel-Daunais,"Seafood/Fish,Fish & Chips,Mediterranean,Tapas,Tartare,Mussels",https://www.restomontreal.ca/resto/le-shack-du-pecheur-boucherville/12698/en/
45,Bar Ganadara,45.492511,-73.580293,1900 Rue Ste-Catherine O,"Korean,Fusion,Asian,Fried Chicken",https://www.restomontreal.ca/resto/bar-ganadara-downtown/14240/en/
46,Les Cavistes - Bistro Bar à vin Boutique,45.545777,-73.666213,196 Rue Fleury O,"Bistro,French,Tartare",https://www.restomontreal.ca/resto/les-cavistes-bistro-bar-a-vin-boutique-ahuntsic-cartierville/5978/en/
47,Pub BreWskey,45.509381,-73.551365,380 Rue St-Paul E,"Pub Food,Comfort Food,Burgers,Poutine,Fish & Chips,Salads",https://www.restomontreal.ca/resto/pub-brewskey-old-montreal/9521/en/
48,Yen Cuisine Japonaise,45.497494,-73.580165,2157 Rue Mackay,"Japanese,Sushi,Soups,Salads,Poke Bowl",https://www.restomontreal.ca/resto/yen-cuisine-japonaise-downtown/12582/en/
49,Akwaba,45.569396,-73.583776,4541 Rue Bélanger E,"African,Greek,Fusion,Vegetarian",https://www.restomontreal.ca/resto/akwaba-rosemont-la-petite-patrie/4096/en/
50,Allô mon Coco,45.494584,-73.580233,1684 Boulevard de Maisonneuve O,"Breakfast,Salads,Burgers,Grill,Crêpes,Sandwiches",https://www.restomontreal.ca/resto/allo-mon-coco-downtown/10389/en/
51,Bagatelle Bistro,45.552925,-73.539788,4323 Rue Ontario E,"Bistro,Market,French,Burgers,Tartare",https://www.restomontreal.ca/resto/bagatelle-bistro-hochelaga-maisonneuve/4485/en/
52,Lucille's Laval,45.569491,-73.757014,2565 Boulevard Daniel-Johnson,"Seafood/Fish,Grill,Fish & Chips,Tartare,Burgers,Steakhouse",https://www.restomontreal.ca/resto/lucilles-laval-chomedey/13284/en/
53,Guacamole Y Tequila,45.265298,-72.150357,112 Rue Principale,"Mexican,Latin American,Gluten-free Options,Vegetarian,Vegan Options",https://www.restomontreal.ca/resto/guacamole-y-tequila-magog/3420/en/
54,Le Virunga,45.524093,-73.576234,851 Rue Rachel E,"African,Healthy,Grill,Exotic,Gluten-free Options",https://www.restomontreal.ca/resto/virunga-le-plateau/10928/en/
55,Sésame,45.412541,-74.030485,35 Boulevard de la Cité-des-Jeunes,"Asian,Fusion,Chinese,Japanese,Thai,Vegetarian",https://www.restomontreal.ca/resto/sesame-vaudreuil-dorion/17523/en/
56,Panuozzo,45.515583,-73.576601,3820 Boulevard St-Laurent,"Italian,Pizza,Sandwiches,Pasta,Tunisian,Comfort Food",https://www.restomontreal.ca/resto/panuozzo-le-plateau/14632/en/
57,Bravi Restaurant,45.561444,-73.450447,2794 Boulevard Jacques-Cartier E,"Italian,Pizza,Bistro",https://www.restomontreal.ca/resto/bravi-restaurant-longueuil/1890/en/
58,Le Passé Composé,45.498832,-73.558003,701 Rue William,"Breakfast,French,Bistro,Grilled Cheese,Sandwiches,Café",https://www.restomontreal.ca/resto/le-passe-compose-old-montreal/2988/en/
59,Les Enfants Terribles,45.501467,-73.569725,3 Place Ville Marie,"Comfort Food,Market,French,Bistro,Tartare,Grill",https://www.restomontreal.ca/resto/les-enfants-terribles-downtown/10605/en/
60,La Banquise,45.525312,-73.574672,994 Rue Rachel E.,"Casse-Croute (Snack Bar),Poutine,Burgers,Regional,Breakfast",https://www.restomontreal.ca/resto/la-banquise-le-plateau/2499/en/
61,BEVO Bar + Pizzeria,45.507028,-73.553268,410 Rue Saint-Vincent,"Pizza,Italian,Pasta",https://www.restomontreal.ca/resto/bevo-bar-pizzeria-old-montreal/5174/en/
62,Pot Masson,45.549865,-73.574129,3141 Rue Masson,"Café,Tapas,Tartare,Bistro,Burgers,Comfort Food",https://www.restomontreal.ca/resto/pot-masson-rosemont-la-petite-patrie/9408/en/
63,Taiyo Sushi,45.523933,-73.469236,2480 Chemin de Chambly,"Sushi,Fusion,Japanese,Grill,Asian",https://www.restomontreal.ca/resto/taiyo-sushi-longueuil/11967/en/
64,Vua Sandwichs,45.568766,-73.605449,3733 Rue Jarry E,"Sandwiches,Healthy,Sushi,Vietnamese,Fusion,Asian",https://www.restomontreal.ca/resto/vua-sandwichs-villeray-saint-michel/13237/en/
65,Sukho Thai Centropolis - private rooms - karaoke,45.562281,-73.745066,145 Promenade du Centropolis,"Thai,Asian,Vegan Options,Gluten-free Options",https://www.restomontreal.ca/resto/sukho-thai-centropolis-private-rooms-karaoke-chomedey/1883/en/
66,Piri Piri,45.496988,-73.624155,5480 Chemin de la Côte-des-Neiges,"Portuguese,Rotisserie,Grill,Poutine",https://www.restomontreal.ca/resto/piri-piri-cote-des-neiges-cote-des-neiges/11758/en/
67,Restaurant Coco Mania,45.677115,-73.886866,1083 Boulevard Curé-Labelle,"Breakfast,Crêpes,Pizza,Sandwiches,Greek,Mediterranean",https://www.restomontreal.ca/resto/restaurant-coco-mania-blainville/10412/en/
68,Le Vice-Caché Bistro Urbain,45.827143,-73.424738,351 Boulevard L'Ange-Gardien,"Bistro,Tapas,Tartare,Urban,Contemporary/Modern,Regional",https://www.restomontreal.ca/resto/le-vice-cache-bistro-urbain-lassomption/12882/en/
69,Lloyd,45.497526,-73.567353,1050 Rue de la Gauchetiere O,"Mediterranean,Market,Seafood/Fish,Tartare,Bistro,Fusion",https://www.restomontreal.ca/resto/lloyd-downtown/14351/en/
70,Piri Piri,45.577559,-73.545666,6060 Rue Sherbrooke E,"Portuguese,Rotisserie,Grill,Poutine",https://www.restomontreal.ca/resto/piri-piri-rosemont-la-petite-patrie/14901/en/
71,Cabane à Sucre Constantin,45.580373,-73.975864,1054 Boulevard Arthur-Sauvé,"Sugar Shack,Regional,Desserts & Sweets",https://www.restomontreal.ca/resto/cabane-a-sucre-constantin-saint-eustache/10561/en/
72,Yul Restaurant-Bar,45.493062,-73.699907,7000 Place Robert Joncas,"International,Italian,Fusion,Comfort Food,Grill,Seafood/Fish",https://www.restomontreal.ca/resto/yul-restaurant-bar-ville-saint-laurent/17224/en/
73,Allô mon Coco,45.498717,-73.62715,5685 Chemin de la Côte-des-Neiges,"Breakfast,Salads,Burgers,Grill,Crêpes,Sandwiches",https://www.restomontreal.ca/resto/allo-mon-coco-cote-des-neiges/8446/en/
74,La Grange bar à vin,45.309162,-73.251768,6 Rue Foch,"Grill,Tartare,Steakhouse,Seafood/Fish,Pasta,Mussels",https://www.restomontreal.ca/resto/la-grange-bar-a-vin-st-jean-sur-richelieu/14866/en/
75,Giorgio,45.568991,-73.448536,20A Boulevard de Mortagne,"Italian,Pasta,Pizza",https://www.restomontreal.ca/resto/giorgio-boucherville/3466/en/
76,Allons Burger Let's go,45.54593,-73.752961,1205 Boulevard Curé-Labelle,"Burgers,Poutine,Comfort Food,Salads,Halal,Vegetarian",https://www.restomontreal.ca/resto/allons-burger-lets-go-chomedey/12696/en/
77,SHAKER Cuisine & Mixologie,45.776913,-74.002596,337 Rue St-Georges,"Burgers,Tartare,Comfort Food,Poke Bowl,Poutine,Salads",https://www.restomontreal.ca/resto/shaker-cuisine-mixologie-saint-jerme/14289/en/
78,Poke Ici,45.478729,-73.568728,2544 Rue du Centre,"Japanese,Sushi,Asian,Poke Bowl,Vegetarian,Vegan Options",https://www.restomontreal.ca/resto/poke-ici-pointe-st-charles/16834/en/
79,Bar Nacarat,45.500492,-73.567301,900 Boulevard René-Lévesque O,"Tartare,Seafood/Fish,Grill,Charcuterie,Contemporary/Modern,Pub Food",https://www.restomontreal.ca/resto/bar-nacarat-downtown/11961/en/
80,Moghel Tandoori,45.501127,-73.510075,538 Rue Victoria,"Indian,Halal",https://www.restomontreal.ca/resto/moghel-tandoori-saint-lambert/8754/en/
81,Marathon Souvlaki Express,45.540397,-73.749262,3940 Boulevard Notre-Dame,"Greek,Grill,Mediterranean,Salads,Gluten-free Options",https://www.restomontreal.ca/resto/marathon-souvlaki-express-chomedey/10451/en/
82,Le Basilic Vert,45.522446,-73.786076,15 Boulevard Samson,"Thai,Vietnamese,Asian",https://www.restomontreal.ca/resto/le-basilic-vert-sainte-dorothee/3145/en/
83,Resto Bar Brasse-Rires,45.599504,-73.725078,1790 Boulevard des Laurentides,"Pub Food,Poutine,Pasta,Burgers",https://www.restomontreal.ca/resto/resto-bar-brasse-rires-vimont/15047/en/
84,Portovino Ristorante,45.498069,-73.658054,7977 Boulevard Decarie,"Italian,Seafood/Fish,Pizza,French,Grill,Tartare",https://www.restomontreal.ca/resto/portovino-ristorante-cote-des-neiges/17638/en/
85,Mile Public House,45.446101,-73.437918,9190 Boulevard Leduc,"Pub Food,Burgers,Comfort Food,Fish & Chips,Poutine,Salads",https://www.restomontreal.ca/resto/mile-public-house-brossard/6115/en/
86,Le Shack Du Pêcheur,45.404346,-73.498521,1119 Boulevard Taschereau,"Seafood/Fish,Fish & Chips,Mediterranean,Tapas,Tartare,Mussels",https://www.restomontreal.ca/resto/le-shack-du-pecheur-la-prairie/10806/en/
87,D'Artagnan Crêpes et Fondues,45.710244,-73.651192,1421 Chemin Gascon,"Crêpes,Fondue,Gluten-free Options",https://www.restomontreal.ca/resto/dartagnan-crepes-et-fondues-terrebonne-lachenaie/2547/en/
88,Bistro Le Cerf-Volant,45.598891,-73.521118,8480 Rue Hochelaga,"Bistro,Market,Creative,Vegetarian,French,Tartare",https://www.restomontreal.ca/resto/bistro-le-cerf-volant-tetreaultville-mercier-est/17913/en/
89,Piatti Pronti,45.567276,-73.735952,1794 Boulevard Le Corbusier,"Italian,Pasta",https://www.restomontreal.ca/resto/piatti-pronti-chomedey/3747/en/
90,La Paella,45.519526,-73.554881,1326 Rue Ste-Catherine,"Spanish,Tapas,Mediterranean,Seafood/Fish,Mussels",https://www.restomontreal.ca/resto/la-paella-village-centre-sud/17967/en/
91,Zykaa,45.60238,-73.519112,8792 Rue Hochelaga,"Indian,Pakistani",https://www.restomontreal.ca/resto/zykaa-hochelaga-maisonneuve/10537/en/
92,PoutineVille,45.523229,-73.561261,1365 Rue Ontario E,"Poutine,Burgers,Salads,Sandwiches",https://www.restomontreal.ca/resto/poutineville-village-centre-sud/5002/en/
93,Thammada,45.520507,-73.608807,1205 Avenue Bernard,"Thai,Asian,Vegetarian,Tapas,Grill,Salads",https://www.restomontreal.ca/resto/thammada-outremont/13409/en/
94,Rutba,45.514379,-73.57317,3633 Boulevard St-Laurent,"Indian,Vegetarian",https://www.restomontreal.ca/resto/rutba-le-plateau/17845/en/
95,Zyara,45.533772,-73.654788,1004 Rue du Marché Central,"Lebanese,Mediterranean,Vegetarian,Gluten-free Options",https://www.restomontreal.ca/resto/zyara-ahuntsic-cartierville/6615/en/
96,Cerise Buvette,45.54509,-73.666746,234 Rue Fleury O,"Market,Tapas,Creative,Regional,Vegetarian,Buvette",https://www.restomontreal.ca/resto/cerise-buvette-ahuntsic-cartierville/14887/en/
97,Ibéricos Taverne à Tapas Espagnoles,45.523902,-73.58243,4475 Rue Saint-Denis,"Spanish,Tapas,Café,Market,Sandwiches,Basque",https://www.restomontreal.ca/resto/ibericos-le-plateau/11112/en/
98,New Restaurant Pulcinella,45.537091,-73.612182,6950 Rue St-Denis,"Italian,Pasta,Seafood/Fish,Tartare,Grill",https://www.restomontreal.ca/resto/restaurant-pulcinella-little-italy/19246/en/
99,Birreria ITALI.CO,45.498631,-73.706404,3131 Boulevard de la Cote-Vertu,"Italian,Tapas,American,Pizza,Burgers,Mediterranean",https://www.restomontreal.ca/resto/birreria-itali-co-ville-saint-laurent/9843/en/
100,PoutineVille,45.482258,-73.630617,5405 Queen Mary Rd,"Poutine,Burgers,Salads,Sandwiches",https://www.restomontreal.ca/resto/poutineville-notre-dame-de-grace-ndg/13100/en/
101,Salle de réception le Salon Bleu,45.543757,-73.620077,7618 Rue St-Hubert,"Peruvian,Latin American,Seafood/Fish,Grill,Gluten-free Options",https://www.restomontreal.ca/resto/salle-de-reception-le-salon-bleu-villeray-saint-michel/17007/en/
102,L'Hamburger,45.48793,-73.85029,4708 Boulevard Saint-Jean,"Burgers,American,Poutine,Comfort Food,Canadian,Juice Bar & Smoothies",https://www.restomontreal.ca/resto/lhamburger-pierrefonds-roxboro/16876/en/
103,Buvette Laganière,45.305361,-73.250639,167 Rue Richelieu,"Burgers,Fish & Chips,Tartare,Steakhouse,Poutine,Pub Food",https://www.restomontreal.ca/resto/buvette-laganiere-st-jean-sur-richelieu/14885/en/
104,Restaurant Cabotins,45.556098,-73.530822,4821 Rue Ste-Catherine E,"French,Tartare,Gluten-free Options",https://www.restomontreal.ca/resto/restaurant-cabotins-hochelaga-maisonneuve/1801/en/
105,Terrasse Alizé,45.503952,-73.562783,340 Rue de La Gauchetière O,"Market,Regional,Tartare,Seafood/Fish,Burgers,Gluten-free Options",https://www.restomontreal.ca/resto/terrasse-alize-downtown/15498/en/
106,Le Château D'Asie,45.732256,-73.454829,60 Rue Aqueduc,"Thai,Chinese,Cambodian,Asian,Szechuan",https://www.restomontreal.ca/resto/le-chateau-dasie-repentigny/5555/en/
107,Sushi Matsu,45.366063,-73.710434,40 Boulevard St-Jean-Baptiste,"Sushi,Japanese,Thai,Asian,Fusion,Szechuan",https://www.restomontreal.ca/resto/sushi-matsu-chateauguay/7115/en/
108,New Burger BUM,45.39901,-72.726595,20 Rue Johnson,"Burgers,Poutine,Ice Cream",https://www.restomontreal.ca/resto/burger-bum-granby/18366/en/
109,Bocci Restaurant,45.428718,-73.631787,1756 Avenue Dollard,"Italian,Mediterranean,Grill",https://www.restomontreal.ca/resto/bocci-restaurant-lasalle/190/en/
110,Piel Canela,45.524189,-73.583753,4542 Rue St-Denis,"Café,Breakfast,Latin American,Gluten-free Options",https://www.restomontreal.ca/resto/piel-canela-le-plateau/17811/en/
111,Le Khan Xpress,45.562172,-73.580249,4035 Rue Beaubien E,"Afghan,Sandwiches,Poutine,Comfort Food,Middle Eastern,Burgers",https://www.restomontreal.ca/resto/le-khan-xpress-villeray-saint-michel/19993/en/
112,Restaurant Maurizio,45.445291,-73.852771,2738 Boulevard St-Charles,"Italian,Pasta,Pizza,Grill,Café,Burgers",https://www.restomontreal.ca/resto/restaurant-maurizio-kirkland/9866/en/
113,La Cabane du Coureur,45.682713,-73.251125,158 Des 60 Rang,"Sugar Shack,Regional,Desserts & Sweets,Crêpes",https://www.restomontreal.ca/resto/la-cabane-du-coureur-st-marc-sur-richelieu/13042/en/
114,Restaurant Brava Grill #1,45.494145,-73.481696,3302 Boulevard Taschereau,"Portuguese,Market,Grill,Poutine,Sandwiches,Seafood/Fish",https://www.restomontreal.ca/resto/restaurant-brava-grill-1-longueuil/13454/en/
115,Mlle Flexcyntarienne - Repas prêt à manger,45.582692,-73.749431,2940b Boulevard le Corbusier,"Vegan Options,Salads,Vegetarian,Healthy,Organic/Bio,Comfort Food",https://www.restomontreal.ca/resto/mlle-flexcyntarienne-repas-pret-a-manger-chomedey/14209/en/
116,Sandhu,45.533167,-73.575574,4548 Avenue Papineau,"Italian,Indian,Pizza,Salads",https://www.restomontreal.ca/resto/sandhu-le-plateau/1936/en/
117,Le Toit Rouge,45.565735,-73.553067,5000 Rue Sherbrooke E,"International,Pasta,Sandwiches,Burgers,Grill,Fish & Chips",https://www.restomontreal.ca/resto/le-toit-rouge-hochelaga-maisonneuve/11460/en/
118,Cabane aux Délices des Sucres,45.866269,-73.736164,290 Côte Jeanne,"Sugar Shack,Regional,Desserts & Sweets",https://www.restomontreal.ca/resto/cabane-aux-delices-des-sucres-saint-lin-laurentides/11206/en/
119,Chez Canton,45.507797,-73.566908,1425 Rue Jeanne-Mance,"Regional,Fondue,Soups,Salads",https://www.restomontreal.ca/resto/chez-canton-downtown/17649/en/
120,Restaurant L'Élan - Parcours du Cerf,45.560712,-73.452331,2500 Boulevard Fernand-Lafontaine,"Breakfast,French,Asian,Fusion,Market",https://www.restomontreal.ca/resto/restaurant-lelan-parcours-du-cerf-longueuil/15239/en/
121,Corner Collection,45.507891,-73.553645,448 Place Jacques-Cartier,"Breakfast,French,Asian,Fusion,Market",https://www.restomontreal.ca/resto/corner-collection-old-montreal/17881/en/
122,Les Enfants Terribles,45.472914,-73.538108,209 Rue de la Rotonde,"Comfort Food,Market,French,Bistro,Tartare,Grill",https://www.restomontreal.ca/resto/les-enfants-terribles-verdun/6507/en/
123,Restaurant Majeur,45.509804,-73.675322,617 Boulevard Decarie,"Russian,Grill,Seafood/Fish,Soups,Salads",https://www.restomontreal.ca/resto/restaurant-majeur-ville-saint-laurent/18824/en/
124,India Beau Village,45.530884,-73.63564,640 Rue Jarry O,"Indian,Halal,Vegetarian",https://www.restomontreal.ca/resto/india-beau-village-parc-extension/926/en/
125,SHAKER Cuisine & Mixologie,45.643686,-73.871475,20820 Chemin de la Côte N,"Burgers,Tartare,Comfort Food,Poke Bowl,Poutine,Salads",https://www.restomontreal.ca/resto/shaker-cuisine-mixologie-blainville/18175/en/
126,Paradise Biryani Pointe,45.494431,-73.579869,1439B Rue St-Mathieu,"Indian,Vegetarian",https://www.restomontreal.ca/resto/paradise-biryani-pointe-downtown/11459/en/
127,L'Oeufrier,45.435145,-73.671108,830 Rue Notre-Dame,"Breakfast,Crêpes,Burgers,Grilled Cheese,Poutine,Gluten-free Options",https://www.restomontreal.ca/resto/l-oeufrier-lachine/13377/en/
128,Restaurant Manana,45.518007,-73.569316,3605 Rue Saint-Denis,"Mexican,Vegetarian,Market,Latin American,Gluten-free Options",https://www.restomontreal.ca/resto/restaurant-manana-le-plateau/4996/en/
129,Diba Restaurant,45.467563,-73.638203,6520 ave Somerled,"Persian,Iranian,Middle Eastern,Grill",https://www.restomontreal.ca/resto/diba-restaurant-notre-dame-de-grace-ndg/20050/en/
130,Le Boating Club,45.611692,-73.792134,30 Boulevard Curé-Labelle,"Eclectic,Creative,Comfort Food,International,Tartare",https://www.restomontreal.ca/resto/le-boating-club-sainte-rose/9937/en/
131,Restaurant Tabu,45.531167,-73.60776,67 Rue Beaubien E,"Peruvian,Brazilian,Fusion,Seafood/Fish,Grill,Tapas",https://www.restomontreal.ca/resto/restaurant-tabu-little-italy/16908/en/
132,Jacques Cartier Pizza,45.583057,-73.324815,183 Boulevard Armand-Frappier,"Pizza,Poutine,Burgers,Comfort Food,Pasta,Sandwiches",https://www.restomontreal.ca/resto/jacques-cartier-pizza-sainte-julie/16051/en/
133,Sāmon Sushi,45.590618,-73.433288,1001 Boulevard de Montarville,"Japanese,Sushi,Asian,Fusion,Grill,Poke Bowl",https://www.restomontreal.ca/resto/samon-sushi-boucherville/14933/en/
134,Braseiro,45.539799,-73.633601,8261 Boulevard St-Laurent,"Portuguese,Grill,Seafood/Fish,Tapas,Sandwiches",https://www.restomontreal.ca/resto/braseiro-villeray-saint-michel/198/en/
135,Sushi Crescent,45.497726,-73.576521,1437 Rue Crescent,"Sushi,Japanese,Asian,Fusion,Grill,Gluten-free Options",https://www.restomontreal.ca/resto/sushi-crescent-downtown/2570/en/
136,Skillz Cuisine,45.480046,-73.579956,3544 Rue Notre-Dame O,"Jamaican,Caribbean,Grill,Seafood/Fish",https://www.restomontreal.ca/resto/skillz-cuisine-saint-henri/16469/en/
137,Amber,45.520564,-73.579122,266 Rue Rachel E,"Pakistani,Indian,Grill,Vegetarian,BBQ,Gluten-free Options",https://www.restomontreal.ca/resto/amber-le-plateau/14101/en/
138,Bistro GURU,45.517245,-73.568732,3464 Rue Saint-Denis,"Indian,Vegetarian",https://www.restomontreal.ca/resto/bistro-guru-le-plateau/8344/en/
139,L'Hamburger,45.65617,-73.800593,75 Boulevard des Châteaux,"Burgers,American,Poutine,Comfort Food,Canadian,Juice Bar & Smoothies",https://www.restomontreal.ca/resto/lhamburger-blainville/17156/en/
140,Umami Ramen & Izakaya,45.531235,-73.612691,6660 Rue Clark,"Vegan Options,Ramen,Japanese,Fusion,Asian,Soups",https://www.restomontreal.ca/resto/umami-ramen-izakaya-mile-ex/13281/en/
141,Le Charleville,45.388598,-74.014144,197 Avenue St-Charles,"French,Market,Grill,Mussels,Tartare,Seafood/Fish",https://www.restomontreal.ca/resto/le-charleville-vaudreuil-dorion/2699/en/
142,Essence,45.504289,-73.571825,2001 Boulevard Robert-Bourassa,"Mediterranean,Bistro,International,Market,Fusion,Tartare",https://www.restomontreal.ca/resto/essence-downtown/2493/en/
143,Dame Tartine,45.623482,-72.945187,1605 Rue St-Antoine,"Breakfast,Crêpes,Salads,Sandwiches,Comfort Food,Market",https://www.restomontreal.ca/resto/dame-tartine-saint-hyacinthe/7246/en/
144,Villa D'Este - St-Jérôme,45.768137,-74.000499,7 Rue St-Georges,"Italian,Pasta,Seafood/Fish,Grill",https://www.restomontreal.ca/resto/villa-deste-st-jerome-saint-jerme/3647/en/
145,ZIBO! Restaurant-Bar,45.600662,-73.564402,7999 Boulevard des Galeries D'Anjou,"Californian,Grill,Salads,Pasta,Pizza,Burgers",https://www.restomontreal.ca/resto/zibo-restaurant-bar-anjou-st-leonard/4310/en/
146,Anorak - Broue Pub / Brasserie,45.903907,-74.236717,2 Rue Meadowbrook,"BBQ,American,Smokehouse,Comfort Food,Burgers,Poutine",https://www.restomontreal.ca/resto/anorak-broue-pub-brasserie-morin-heights/15420/en/
147,Madame Bovary,45.568534,-73.447808,20 Boulevard de Mortagne,"Bistro,Market,French,Tapas,Tartare,Contemporary/Modern",https://www.restomontreal.ca/resto/madame-bovary-boucherville/11757/en/
148,La Belle Corée,45.52262,-73.595818,101 Avenue Fairmount O.,"Korean,BBQ,Bistro,Vegan Options,Grill,Vegetarian",https://www.restomontreal.ca/resto/la-belle-coree-mile-end/12815/en/
149,Mignonette,45.509604,-73.563907,30 Rue Ste-Catherine O,"Market,Tartare,Seafood/Fish,Vegetarian,Gluten-free Options",https://www.restomontreal.ca/resto/mignonette-quartier-des-spectacles/13590/en/
150,Sésame,,,305 Rue Ste-Catherine O,"Asian,Fusion,Chinese,Japanese,Thai,Vegetarian",https://www.restomontreal.ca/resto/sesame-quartier-des-spectacles/6833/en/
151,La Buvette du Quartier,45.456771,-73.420334,1015 Boulevard du Quartier,"Bistro,Tartare,Seafood/Fish,Charcuterie,Buvette",https://www.restomontreal.ca/resto/la-buvette-du-quartier-brossard/12258/en/
152,La Focaccia,45.806438,-74.013542,2210 Boulevard du Curé-Labelle,"Pasta,Pizza,Grill,Seafood/Fish",https://www.restomontreal.ca/resto/la-focaccia-saint-jerme/2177/en/
153,Steak Frites St-Paul,45.724778,-73.507328,950 Montée des Pionniers,"Steakhouse,Grill,Tartare",https://www.restomontreal.ca/resto/steak-frites-st-paul-terrebonne-lachenaie/9206/en/
154,GESO Ristorante,45.495393,-73.582302,1800 Rue Sherbrooke O,"Italian,Pasta,Grill,Market,Vegan Options,Salads",https://www.restomontreal.ca/resto/geso-ristorante-downtown/16798/en/
155,New Usine Grecque,45.41148,-74.041045,120 Rue Joseph-Carrier #102,"Greek,Mediterranean,Vegetarian,Poutine,Grill,Burgers",https://www.restomontreal.ca/resto/usine-grecque-vaudreuil-dorion/18971/en/
156,La Bêtise,45.50516,-73.380028,520 Boulevard des Promenades,"Tapas,Creative,Tartare,Poutine,Fusion,Burgers",https://www.restomontreal.ca/resto/la-betise-saint-bruno/14434/en/
157,Rockstar Burger Bar,45.723998,-73.620139,"130, Montée Masson","Burgers,Poutine,Casse-Croute (Snack Bar),Comfort Food,BBQ,Sandwiches",https://www.restomontreal.ca/resto/rockstar-burger-bar-mascouche/12773/en/
158,Restaurant Pachamama,45.541474,-73.614574,7245 Rue St-Hubert,"Peruvian,Latin American,Seafood/Fish,Grill,Salads,Soups",https://www.restomontreal.ca/resto/restaurant-pachamama-villeray-saint-michel/12474/en/
159,SHAKER Cuisine & Mixologie,46.056703,-71.941325,485 Boulevard Jutras E,"Burgers,Tartare,Comfort Food,Poke Bowl,Poutine,Salads",https://www.restomontreal.ca/resto/shaker-cuisine-mixologie-victoriaville/13203/en/
160,Allô mon Coco,45.501069,-73.559587,501-A Rue McGill,"Breakfast,Salads,Burgers,Grill,Crêpes,Sandwiches",https://www.restomontreal.ca/resto/allo-mon-coco-old-montreal/14759/en/
161,Les Enfants Terribles,45.519886,-73.609169,1257 Avenue Bernard,"Comfort Food,Market,French,Bistro,Tartare,Grill",https://www.restomontreal.ca/resto/les-enfants-terribles-outremont/2665/en/
162,Restaurant Bar Le Quartz,45.570401,-73.743263,2225 Route des Laurentides,"International,Mediterranean,Market,Breakfast,Salads,Gluten-free Options",https://www.restomontreal.ca/resto/restaurant-bar-le-quartz-chomedey/10322/en/
163,Piri Piri,45.524254,-73.582809,415 Avenue Mont-Royal E,"Portuguese,Rotisserie,Grill,Poutine",https://www.restomontreal.ca/resto/piri-piri-le-plateau/3914/en/
164,Yoko Luna,45.497476,-73.574699,1234 Rue de la Montagne,"Japanese,Peruvian,Latin American,Fusion,Seafood/Fish,Tartare",https://www.restomontreal.ca/resto/yoko-luna-downtown/15327/en/
165,Quartier Général du Vieux La Prairie,45.420444,-73.495414,206 Rue Ste-Marie,"Café,Tea,Sandwiches,Salads,Breakfast,Juice Bar & Smoothies",https://www.restomontreal.ca/resto/quartier-general-du-vieux-la-prairie-la-prairie/10914/en/
166,Essence Club,45.504376,-73.571982,2001 Boulevard Robert-Bourassa,Bar,https://www.restomontreal.ca/resto/essence-club-downtown/16629/en/
167,Origine Brass,45.478004,-73.785918,2220 Boulevard Hymus,"Comfort Food,Sandwiches,Pizza,Burgers,Salads,Vegetarian",https://www.restomontreal.ca/resto/origine-brass-dorval/15680/en/
168,Mezcaleros Tapas & Cocktails,45.523866,-73.60636,5834 Avenue du Parc,"Mexican,Tapas,Creative",https://www.restomontreal.ca/resto/mezcaleros-tapas-cocktails-mile-end/12819/en/
169,Toujours Mikes,45.891153,-74.148322,110 Avenue Guindon,"Pizza,Pasta,Poutine,Sandwiches,Salads,Chicken Wings",https://www.restomontreal.ca/resto/toujours-mikes-saint-sauveur/18120/en/
170,Le Nil Bleu,45.518435,-73.571195,3706 Rue Saint-Denis,"Ethiopian,African,Exotic,Vegetarian,Healthy,Vegan Options",https://www.restomontreal.ca/resto/le-nil-bleu-le-plateau/1427/en/
171,Saint-Laurent Café Bistro,45.61313,-73.454416,578 Rue St-Charles,"Café,Healthy,Poke Bowl,Sandwiches,Grilled Cheese,Vegan Options",https://www.restomontreal.ca/resto/saint-laurent-cafe-bistro-boucherville/5903/en/
172,Muzique,45.515447,-73.575642,3781 Boulevard St-Laurent,Bar,https://www.restomontreal.ca/resto/muzique-downtown/17439/en/
173,Manga Bistro,45.493209,-73.579718,1836A Rue Ste-Catherine O,"Sushi,Japanese,Fusion,Asian",https://www.restomontreal.ca/resto/manga-bistro-downtown/17295/en/
174,Chez Fabien,45.692553,-73.634783,778 Rue St-Pierre,"Italian,French,Pasta,Tartare,Grill,Pizza",https://www.restomontreal.ca/resto/chez-fabien-terrebonne-lachenaie/3494/en/
175,Jukebox Burgers,45.484017,-73.803674,11798 Boulevard de Salaberry,"Burgers,Comfort Food,Poutine,Ice Cream,Chicken Wings,Casse-Croute (Snack Bar)",https://www.restomontreal.ca/resto/jukebox-burgers-dollard-des-ormeaux/4378/en/
176,Sushi Sama,45.544072,-73.595767,1889 Rue Beaubien E,"Sushi,Poke Bowl",https://www.restomontreal.ca/resto/sushi-sama-rosemont-la-petite-patrie/5820/en/
177,PoutineVille,45.540492,-73.598829,1348 Rue Beaubien E,"Poutine,Burgers,Salads,Sandwiches",https://www.restomontreal.ca/resto/poutineville-rosemont-la-petite-patrie/4789/en/
178,VEGANARIE (RESTO VEGANARIE),45.509075,-73.805685,19H Rue du Centre Commercial,"Vegan Options,Comfort Food,Greek,Mediterranean,Salads,Burgers",https://www.restomontreal.ca/resto/veganarie-resto-veganarie-pierrefonds-roxboro/16212/en/
179,Quattro Ristorante,45.505883,-73.556071,17 Rue Notre-Dame O.,"Italian,Mediterranean,Fusion,Creative",https://www.restomontreal.ca/resto/quattro-ristorante-old-montreal/3856/en/
180,Nourri au Beurre,45.590201,-73.430579,1052 Rue Lionel-Daunais,"French,Market,Wild Game,Regional",https://www.restomontreal.ca/resto/nourri-au-beurre-boucherville/11995/en/
181,Restaurant & Bar Le Kube,45.499,-73.565729,900 Rue de la Gauchetière O,"French,International,Regional,Grill,Pizza,Pasta",https://www.restomontreal.ca/resto/restaurant-bar-le-kube-downtown/2332/en/
182,Patate et Persil,45.383631,-74.008896,9 Avenue St-Charles,"Casse-Croute (Snack Bar),Burgers,Poutine,Sandwiches,Salads,Comfort Food",https://www.restomontreal.ca/resto/patate-et-persil-vaudreuil-dorion/13265/en/
183,Rouge Steakhouse,45.731501,-73.451019,364 Rue Notre-Dame,"Steakhouse,Grill,Tapas,Vegetarian,Chicken Wings,Burgers",https://www.restomontreal.ca/resto/rouge-steakhouse-repentigny/14818/en/
184,Trattoria Casa Rinacchio,45.61287,-73.788141,237 Boulevard Ste-Rose,"Italian,Pasta,Pizza",https://www.restomontreal.ca/resto/trattoria-casa-rinacchio-sainte-rose/4358/en/
185,Les Têtes de Cochon (Boucherie),45.948582,-74.129709,15 Rue Lamontagne,"Deli,Seafood/Fish,BBQ,Market,Wild Game,Organic/Bio",https://www.restomontreal.ca/resto/les-tetes-de-cochon-boucherie-sainte-adele/6809/en/
186,Itamea Sushi,45.57938,-73.795446,3145 Boulevard Dagenais O,"Sushi,Asian",https://www.restomontreal.ca/resto/itamea-sushi-fabreville/5307/en/
187,La Piazzetta,45.739681,-73.446246,465 Rue Notre-Dame,"Pizza,Italian,Salads,Bistro,Mediterranean,Pasta",https://www.restomontreal.ca/resto/la-piazzetta-repentigny/5552/en/
188,KOKORO Sushi & Tapas,45.536233,-73.665251,1150 Rue Sauvé O,"Sushi,Japanese,Asian,Tapas,Fusion,Vegetarian",https://www.restomontreal.ca/resto/kokoro-sushi-tapas-ahuntsic-cartierville/11639/en/
189,Tostadito café boulangerie,45.580182,-73.581192,5412 Rue Jean-Talon E,"Colombian,Latin American,Breakfast,Café,Bakery,Desserts & Sweets",https://www.restomontreal.ca/resto/tostadito-cafe-boulangerie-anjou-st-leonard/15996/en/
190,Terrasse William Gray,45.507311,-73.553193,421 Rue St-Vincent,Comfort Food,https://www.restomontreal.ca/resto/terrasse-william-gray-old-montreal/11174/en/
191,Tandoori Palace,45.556996,-73.746232,3204 Boulevard Saint-Martin O,"Indian,Halal,Vegetarian",https://www.restomontreal.ca/resto/tandoori-palace-chomedey/2291/en/
192,Caribou Gourmand,45.524431,-73.596367,5308 Boulevard St-Laurent,"Regional,Market,Grill,Bistro,Wild Game,Burgers",https://www.restomontreal.ca/resto/caribou-gourmand-mile-end/10879/en/
193,Resto Keela,45.516983,-73.55569,1237 Rue Atateken,"Bistro,Pasta,Italian,Grill,Tartare,Vegetarian",https://www.restomontreal.ca/resto/resto-keela-village-centre-sud/13932/en/
194,Lounge H3,45.503969,-73.56282,340 Rue de la Gauchetière O,"Regional,International,Market,Grill,Seafood/Fish,Gluten-free Options",https://www.restomontreal.ca/resto/lounge-h3-downtown/15967/en/
195,Canard Café,45.552486,-73.540016,4299 Rue Ontario E,"Grilled Cheese,Breakfast,Crêpes,Café,Vegetarian,Sandwiches",https://www.restomontreal.ca/resto/canard-cafe-hochelaga-maisonneuve/14321/en/
196,Sana,45.496425,-73.5737,1175A Rue Crescent,"Pakistani,Indian,Vegetarian,Halal,Grill,Gluten-free Options",https://www.restomontreal.ca/resto/sana-downtown/12273/en/
197,Allô mon Coco,45.565441,-73.588062,7001 Boulevard Pie IX,"Breakfast,Salads,Burgers,Grill,Crêpes,Sandwiches",https://www.restomontreal.ca/resto/allo-mon-coco-villeray-saint-michel/14762/en/
198,Jack Saloon,45.49783,-73.57663,1445 Rue Crescent,"Burgers,BBQ,Grill,Steakhouse,Smokehouse,American",https://www.restomontreal.ca/resto/jack-saloon-downtown/17988/en/
199,La Piazzetta,45.499916,-73.507424,680 Avenue Victoria,"Pizza,Italian,Salads,Bistro,Mediterranean,Pasta",https://www.restomontreal.ca/resto/la-piazzetta-saint-lambert/1217/en/
200,Prima Luna,45.617934,-73.594226,7301 Boulevard Henri Bourassa E,"Italian,Sushi,Szechuan",https://www.restomontreal.ca/resto/prima-luna-rdp-pointe-aux-trembles/2624/en/
201,3 Amigos,45.515026,-73.562918,1621 Rue Saint-Denis,"Mexican,Cajun,Latin American",https://www.restomontreal.ca/resto/3-amigos-latin-quarter/2034/en/
202,La Piazzetta,45.534586,-73.514197,480 Rue St-Charles O,"Pizza,Italian,Salads,Bistro,Mediterranean,Pasta",https://www.restomontreal.ca/resto/la-piazzetta-vieux-longueuil/4338/en/
203,ZIBO! Restaurant-Bar,45.444832,-73.435666,1520 Avenue des Lumières #10,"Californian,Grill,Salads,Pasta,Pizza,Burgers",https://www.restomontreal.ca/resto/zibo-restaurant-bar-brossard/2153/en/
204,Fisshu (Uma Sushi),45.504571,-73.5688,537 Rue Ste-Catherine O,"Japanese,Sushi,Fusion,Asian,Vegetarian",https://www.restomontreal.ca/resto/fisshu-uma-sushi-downtown/10223/en/
205,Jack Saloon,45.411956,-74.040457,110A Rue Joseph-Carrier,"Burgers,BBQ,Grill,Steakhouse,Smokehouse,American",https://www.restomontreal.ca/resto/jack-saloon-vaudreuil-dorion/14970/en/
206,Bananier,45.469195,-73.541528,8 Place du Commerce,"Thai,Asian,Fusion,Vegetarian",https://www.restomontreal.ca/resto/bananier-verdun/785/en/
207,La Campagnola,45.428612,-73.631223,1714 Avenue Dollard,"Italian,Steakhouse,Pizza,Pasta,Grill,Bistro",https://www.restomontreal.ca/resto/la-campagnola-lasalle/819/en/
208,Mundo Trattoria,45.454946,-73.859615,"17003, Rte. Trans-Canada","Italian,Seafood/Fish,Pasta,Grill",https://www.restomontreal.ca/resto/mundo-trattoria-kirkland/1416/en/
209,Dawat,45.502161,-73.78795,1808 Rue Sunnybrooke,"Indian,Vegetarian,Halal",https://www.restomontreal.ca/resto/dawat-pierrefonds-roxboro/12459/en/
210,Pacini,45.62993,-73.813605,339 Boulevard Labelle,"Italian,Grill,Pasta,Pizza,Gluten-free Options",https://www.restomontreal.ca/resto/pacini-rosemere/11339/en/
211,Tomate Basilic,45.736886,-73.448423,420 Rue Notre-Dame,"Italian,Pizza,Pasta,Mussels,Gluten-free Options",https://www.restomontreal.ca/resto/tomate-basilic-repentigny/13674/en/
212,Tandem,45.776704,-73.355724,618 Route Marie Victorin,"French,Market,Vegan Options,Vegetarian,Tartare,Gluten-free Options",https://www.restomontreal.ca/resto/tandem-vercheres/4357/en/
213,La Perle Noire,45.486305,-73.460023,4190 Boulevard Grande-Allée,"Vietnamese,Thai,Asian",https://www.restomontreal.ca/resto/la-perle-noire-greenfield-park/2993/en/
214,Le Balthazar,45.562008,-73.745638,195 Promenade du Centropolis,"Pub Food,Burgers,Tartare,Fish & Chips,Chicken Wings,Sandwiches",https://www.restomontreal.ca/resto/le-balthazar-chomedey/5052/en/
215,New Balbastik,45.521304,-73.597085,209 Avenue Fairmount O,"Sandwiches,Juice Bar & Smoothies,Salads",https://www.restomontreal.ca/resto/balbastik-le-plateau/19518/en/
216,Bidon Taverne Culinaire,45.576571,-73.333126,2000 Rue Léonard-de-Vinci,"French,Tartare,Market,Bistro,Burgers,Regional",https://www.restomontreal.ca/resto/bidon-taverne-culinaire-sainte-julie/17214/en/
217,Jacques Cartier Pizza,45.502118,-73.417669,5507 Chemin de Chambly,"Pizza,Poutine,Burgers,Comfort Food,Pasta,Sandwiches",https://www.restomontreal.ca/resto/jacques-cartier-pizza-saint-hubert/17154/en/
218,La Vieille Banque,45.614598,-73.786008,205 Boulevard Ste-Rose,"Italian,Mediterranean,Wild Game,Seafood/Fish,Grill,Pasta",https://www.restomontreal.ca/resto/la-vieille-banque-sainte-rose/5172/en/
219,Louis & Jacob,45.560493,-73.742564,2981 Boulevard St-Martin O,"French,Italian,Market,Creative",https://www.restomontreal.ca/resto/louis-jacob-chomedey/2106/en/
220,New Mlle Rosa,45.529184,-73.578311,1233 Avenue Mont-Royal E,"Indian,Tapas",https://www.restomontreal.ca/resto/mlle-rosa-le-plateau/18265/en/
221,Jacques Cartier Pizza,45.391983,-73.586802,524 Voie de Desserte de la Route 132 Local 100,"Pizza,Poutine,Burgers,Comfort Food,Pasta,Sandwiches",https://www.restomontreal.ca/resto/jacques-cartier-pizza-saint-constant/17758/en/
222,Archibald,45.678965,-73.910387,1345 Boulevard Michèle-Bohec,"Pub Food,Grill,Burgers,Sandwiches,Tartare,Comfort Food",https://www.restomontreal.ca/resto/archibald-blainville/12697/en/
223,Rosélys,45.500492,-73.567301,900 Boulevard René-Lévesque O,"French,Bistro,Market,Contemporary/Modern,Vegetarian,Creative",https://www.restomontreal.ca/resto/roselys-downtown/11962/en/
224,UMÉ Table Japonaise,45.530715,-73.610026,6522 Boulevard St-Laurent,"Japanese,Tartare,Sushi,Asian,Gluten-free Options",https://www.restomontreal.ca/resto/ume-table-japonaise-little-italy/17203/en/
225,Carol à Gogo,45.89418,-74.156719,16 Avenue de la Gare,"Bistro,Tartare,Seafood/Fish,Tapas,Grill,Charcuterie",https://www.restomontreal.ca/resto/carol-a-gogo-saint-sauveur/11389/en/
226,Madisons Restaurant & Bar,45.566809,-73.72782,1695 Boulevard de l'Avenir,"American,Grill,Burgers,Mussels,BBQ,Tartare",https://www.restomontreal.ca/resto/madisons-restaurant-bar-chomedey/2633/en/
227,La Confrérie,45.692875,-73.634595,753 Rue Saint-Pierre,"Pub Food,Bistro,Comfort Food,Regional,Market,Tartare",https://www.restomontreal.ca/resto/la-confrerie-terrebonne-lachenaie/2551/en/
228,Jacques Cartier Pizza,45.537753,-73.463181,1215 Chemin du Tremblay local 115,"Pizza,Poutine,Burgers,Comfort Food,Pasta,Sandwiches",https://www.restomontreal.ca/resto/jacques-cartier-pizza-longueuil/4283/en/
229,Chez Vincent,45.535979,-73.508331,327 Rue St-Laurent O,"Bistro,Comfort Food,Grill,Pub Food,Mussels,Burgers",https://www.restomontreal.ca/resto/chez-vincent-longueuil/528/en/
230,La Buvette du Vieux-Terrebonne,45.694706,-73.637301,888 Rue St-Louis,"Bistro,Market,Tartare,Comfort Food,Pub Food,Burgers",https://www.restomontreal.ca/resto/la-buvette-du-vieux-terrebonne-terrebonne-lachenaie/13588/en/
231,Quartier Général du Vieux Beloeil,45.570103,-73.199982,940 Rue Laurier,"Café,Sandwiches,Breakfast,Salads,Juice Bar & Smoothies,Desserts & Sweets",https://www.restomontreal.ca/resto/quartier-general-du-vieux-beloeil-beloeil/12936/en/
232,Mauvais Garçons,45.487174,-73.567012,1830 Rue William,"Tapas,Comfort Food,Market,Tartare,Fried Chicken,Charcuterie",https://www.restomontreal.ca/resto/mauvais-garcons-griffintown/11442/en/
233,Resto Café Oxford,45.471154,-73.614285,5630 Rue Sherbrooke O,"Breakfast,Canadian,International,Salads,Grill,Fish & Chips",https://www.restomontreal.ca/resto/resto-cafe-oxford-notre-dame-de-grace-ndg/1796/en/
234,Boeuf Cochon,45.778584,-74.016518,255 Rue de Martigny O,"Steakhouse,Grill,Burgers,BBQ,Tartare,Poutine",https://www.restomontreal.ca/resto/boeuf-cochon-saint-jerme/10410/en/
235,Le Nouveau Paragon,45.587247,-73.561617,6491 Rue Beaubien E,"Italian,Pizza,Pasta,Sandwiches,Salads,Grill",https://www.restomontreal.ca/resto/nouveau-paragon-anjou-st-leonard/1879/en/
236,Castel Resto,45.502195,-73.576512,1015 Rue Sherbrooke O,"International,Fusion,French,Tartare,Burgers,Seafood/Fish",https://www.restomontreal.ca/resto/castel-resto-westmount/17142/en/
237,Randolph Pub Ludique Trois-Rivières,46.341779,-72.540795,123 Rue des Forges,"Comfort Food,Burgers,Poutine,Fish & Chips,Salads,Tartare",https://www.restomontreal.ca/resto/randolph-pub-ludique-trois-rivieres-trois-rivieres/14650/en/
238,Bidon Taverne Culinaire,45.502843,-73.513275,35 Boulevard Desaulniers,"French,Tartare,Market,Bistro,Burgers,Regional",https://www.restomontreal.ca/resto/bidon-taverne-culinaire-saint-lambert/4779/en/
239,Casa Alentejo,45.533821,-73.598364,5938 Rue St-Hubert,"Portuguese,Grill,Seafood/Fish,Sandwiches",https://www.restomontreal.ca/resto/casa-alentejo-rosemont-la-petite-patrie/1854/en/
240,Randolph Pub Ludique Saint-Jérôme,45.77645,-74.002679,313 Rue St-Georges,"Comfort Food,Burgers,Poutine,Fish & Chips,Salads,Tartare",https://www.restomontreal.ca/resto/randolph-pub-ludique-saint-jerome-saint-jerme/17241/en/
241,Jacques Cartier Pizza,45.456221,-73.491116,1155 Boulevard Rome Local 110,"Pizza,Poutine,Burgers,Comfort Food,Pasta,Sandwiches",https://www.restomontreal.ca/resto/jacques-cartier-pizza-brossard/14963/en/
242,Déjeuner Cosmopolitain,45.556975,-73.746404,3208 Boulevard Saint-Martin O,"Breakfast,Sandwiches,Crêpes,Salads",https://www.restomontreal.ca/resto/dejeuner-cosmopolitain-chomedey/2727/en/
243,Usine Grecque,45.60037,-73.609638,5960 Boulevard des Grandes-Prairies,"Greek,Mediterranean,Vegetarian,Poutine,Grill,Burgers",https://www.restomontreal.ca/resto/usine-grecque-anjou-st-leonard/14057/en/
244,Cookie Stéfanie,45.502966,-73.558959,272 Rue St-Jacques O,"Pastries,Desserts & Sweets,Bakery,Café,Salads,Grilled Cheese",https://www.restomontreal.ca/resto/cookie-stefanie-old-montreal/13522/en/
245,Restaurant Manana,45.519889,-73.573465,3863 Rue Saint-Denis,"Mexican,Peruvian,Market,Fusion,Grill,Vegetarian",https://www.restomontreal.ca/resto/restaurant-manana-le-plateau/15763/en/
246,Ocakbasi Mardin Palace,45.55822,-73.743877,3010 Boulevard St-Martin O,"Turkish,Mediterranean,Middle Eastern,Vegetarian,Grill,Seafood/Fish",https://www.restomontreal.ca/resto/ocakbasi-mardin-palace-chomedey/13703/en/
247,Jacques Cartier Pizza,45.592566,-73.208898,650 Rue Serge-Pepin,"Pizza,Poutine,Burgers,Comfort Food,Pasta,Sandwiches",https://www.restomontreal.ca/resto/jacques-cartier-pizza-beloeil/17160/en/
248,Jacques Cartier Pizza,45.406013,-73.463921,985 Boulevard des Prés-Verts,"Pizza,Poutine,Burgers,Comfort Food,Pasta,Sandwiches",https://www.restomontreal.ca/resto/jacques-cartier-pizza-la-prairie/12822/en/
249,La Catrina,45.503857,-73.553936,117 Rue de la Commune O,"Mexican,Bistro,Tapas,Grill,Seafood/Fish,Salads",https://www.restomontreal.ca/resto/la-catrina-old-montreal/13199/en/
250,Le Saint-Sau Pub Gourmand,45.894303,-74.157484,236 Rue Principale,"Pub Food,Bistro,Poutine,Fish & Chips,Salads,Burgers",https://www.restomontreal.ca/resto/le-saint-sau-pub-gourmand-saint-sauveur/6651/en/
251,SHAKER Cuisine & Mixologie,45.4136,-72.75136,855 Rue Principale,"Burgers,Tartare,Comfort Food,Poke Bowl,Poutine,Salads",https://www.restomontreal.ca/resto/shaker-cuisine-mixologie-granby/15723/en/
252,Vertigo,45.447411,-73.430253,3700 Rue de l'Éclipse,"Tartare,Burgers,Grill,Bistro,Poke Bowl,Salads",https://www.restomontreal.ca/resto/vertigo-brossard/14315/en/
253,Kwizinn,45.50881,-73.552021,311 Rue Saint-Paul E,"Caribbean,Seafood/Fish,Exotic,Grill,Creative,Cajun",https://www.restomontreal.ca/resto/kwizinn-old-montreal/11763/en/
254,Le Grozépa Brasserie Urbaine,45.540688,-73.590797,5885 Avenue Papineau,"Comfort Food,Pasta,Pizza,Poutine,Urban,Burgers",https://www.restomontreal.ca/resto/le-grozepa-brasserie-urbaine-rosemont-la-petite-patrie/12096/en/
255,Allons Burger Let's go,45.473533,-73.836226,3702 Boulevard Saint-Jean,"Burgers,Poutine,Comfort Food,Salads,Halal,Vegetarian",https://www.restomontreal.ca/resto/allons-burger-lets-go-dollard-des-ormeaux/17161/en/
256,Pizzeria Heirloom,45.549408,-73.542028,3991 Rue Ontario E,"Pizza,Italian",https://www.restomontreal.ca/resto/pizzeria-heirloom-hochelaga-maisonneuve/11955/en/
257,Sushi Taxi,46.540348,-72.753978,932 Promenade du St-Maurice,"Sushi,Asian,Vegetarian,Poke Bowl,Gluten-free Options",https://www.restomontreal.ca/resto/sushi-taxi-shawinigan/12226/en/
258,Thailande,45.526241,-73.603001,88 Avenue Bernard O,"Thai,Asian,Healthy,Vegetarian,Soups,Gluten-free Options",https://www.restomontreal.ca/resto/thailande-mile-end/1741/en/
259,Itamea Sushi,45.539791,-73.599993,1283 Rue Beaubien E,"Sushi,Asian,Poke Bowl",https://www.restomontreal.ca/resto/itamea-sushi-rosemont-la-petite-patrie/11898/en/
260,La Bella Italiana (La Belle Italienne),45.585728,-73.579658,5884 Rue Jean-Talon E,"Pizza,Italian,Ice Cream,Café,Pasta",https://www.restomontreal.ca/resto/bella-italiana-belle-italienne-anjou-st-leonard/2411/en/
261,La Selva Restaurant Mexicain,45.525193,-73.57817,862 Rue Marie-Anne E,"Mexican,Latin American,Tapas,Tartare,Gluten-free Options",https://www.restomontreal.ca/resto/la-selva-restaurant-mexicain-le-plateau/1640/en/
262,Resto École Côté-Jardin,45.879647,-72.485006,417 Rue des Écoles,"International,Regional",https://www.restomontreal.ca/resto/resto-ecole-cote-jardin-drummondville/14136/en/
263,La Rose des Sables - Couscous & Tajine,45.543349,-73.596486,1815 Rue Beaubien E,"Tunisian,Mediterranean,Moroccan,Middle Eastern,Grill,Couscous",https://www.restomontreal.ca/resto/la-rose-des-sables-couscous-tajine-rosemont-la-petite-patrie/4899/en/
264,Avesta,45.48935,-73.58449,2077 Rue Ste-Catherine O.,"Turkish,Tapas,Grill,Middle Eastern,Vegetarian,Gluten-free Options",https://www.restomontreal.ca/resto/avesta-downtown/8904/en/
265,Régine Café,45.543574,-73.595946,1840 Rue Beaubien E,"Breakfast,Café,Bistro,Healthy,Creative,Desserts & Sweets",https://www.restomontreal.ca/resto/regine-cafe-rosemont-la-petite-patrie/5986/en/
266,Vertigo,45.628129,-73.848026,3305 Avenue des Grandes Tourelles,"Tartare,Burgers,Grill,Bistro,Poke Bowl,Salads",https://www.restomontreal.ca/resto/vertigo-boisbriand/8545/en/
267,McKibbins Irish Pub,45.467362,-73.824174,6361 Route Transcanadienne,"Irish,Pub Food,Fish & Chips,Chicken Wings",https://www.restomontreal.ca/resto/mckibbins-irish-pub-pointe-claire/1448/en/
268,Bistro MM Station Culinaire,45.66603,-73.870012,771A Boulevard Curé-Labelle,"Bistro,International,Fusion,Market,Tartare,Salads",https://www.restomontreal.ca/resto/bistro-mm-station-culinaire-blainville/12581/en/
269,Jacques Cartier Pizza,45.516345,-73.490391,1085 Boulevard Curé-Poirier O,"Pizza,Poutine,Burgers,Comfort Food,Pasta,Sandwiches",https://www.restomontreal.ca/resto/jacques-cartier-pizza-longueuil/1191/en/
270,Brasseur de Montréal - Microbrasserie,45.489686,-73.564491,1485 Rue Ottawa,"Burgers,Pub Food,Grill,Comfort Food,Poutine,Tartare",https://www.restomontreal.ca/resto/brasseur-de-montreal-microbrasserie-griffintown/4817/en/
271,Lupo Ristorante,45.576506,-73.329036,1920 Rue Léonard-de-Vinci,"Italian,Pizza,Bistro",https://www.restomontreal.ca/resto/lupo-ristorante-sainte-julie/11426/en/
272,Sep Lai,45.478448,-73.569608,2601 Rue Centre,"Laotian,Asian,Vegetarian,Vegan Options,Gluten-free Options",https://www.restomontreal.ca/resto/sep-lai-pointe-st-charles/14579/en/
273,Lugano's,45.567942,-73.729165,1723 Boulevard St-Martin O,"Italian,Grill,Mussels,Pasta",https://www.restomontreal.ca/resto/luganos-chomedey/1594/en/
274,Aiko Sushi,45.532397,-73.574694,1680 Avenue du Mont-Royal E,"Sushi,Asian,Japanese,Poke Bowl,Vegan Options,Gluten-free Options",https://www.restomontreal.ca/resto/aiko-sushi-le-plateau/4362/en/
275,Toro Rosso,45.520702,-73.554288,1453 Rue Ste-Catherine E,"Italian,Grill,Pizza,Pasta,Gluten-free Options",https://www.restomontreal.ca/resto/toro-rosso-village-centre-sud/6191/en/
276,Bar à Vin Liège,45.739585,-73.446248,465 Rue Notre-Dame,"Bistro,Market,Regional,Vegetarian,French,Smokehouse",https://www.restomontreal.ca/resto/bar-a-vin-liege-repentigny/13802/en/
277,CAFÉ KRÉMA,45.500492,-73.567301,900 Boulevard René-Lévesque O,"Café,Pastries,Sandwiches,Breakfast,Poke Bowl,Salads",https://www.restomontreal.ca/resto/cafe-krema-downtown/14614/en/
278,Sushi Taxi,45.891353,-74.152815,100 Avenue de la Gare RR 6,"Sushi,Asian,Vegetarian,Poke Bowl,Gluten-free Options",https://www.restomontreal.ca/resto/sushi-taxi-saint-sauveur/3409/en/
279,SHAKER Cuisine & Mixologie,45.561148,-73.742774,1750 Avenue Pierre-Péladeau,"Burgers,Tartare,Comfort Food,Poke Bowl,Poutine,Salads",https://www.restomontreal.ca/resto/shaker-cuisine-mixologie-chomedey/15843/en/
280,Restaurant Di Vino,45.577039,-73.330811,1970 Rue Léonard-de-Vinci,"Italian,Pasta,Grill,Salads",https://www.restomontreal.ca/resto/restaurant-di-vino-sainte-julie/15331/en/
281,Grigio,45.572624,-73.720373,993 Boulevard St-Martin O,"Italian,Grill,Pasta,Mussels,Gluten-free Options",https://www.restomontreal.ca/resto/grigio-chomedey/2709/en/
282,Restaurant L'Express,45.619573,-73.780305,85 Boulevard Ste-Rose,"Casse-Croute (Snack Bar),Pizza,Sandwiches,Poutine,Burgers,Canadian",https://www.restomontreal.ca/resto/restaurant-lexpress-sainte-rose/12173/en/
283,La Limette,45.546502,-73.593878,2215 Rue Beaubien E,"Mexican,Tapas,Grill,Latin American,Soups,Gluten-free Options",https://www.restomontreal.ca/resto/la-limette-rosemont-la-petite-patrie/16842/en/
284,Le RAVITO Café-Buvette,45.522627,-73.574305,4051 Rue St-Hubert,"Sandwiches,Café,Buvette,Grilled Cheese,Bagels,Breakfast",https://www.restomontreal.ca/resto/le-ravito-cafe-buvette-le-plateau/19594/en/
285,El Meson,45.432713,-73.679481,1678 Boulevard St-Joseph,"Mexican,Latin American",https://www.restomontreal.ca/resto/el-meson-lachine/1508/en/
286,Barils & Ardoises,45.861465,-74.070123,2925 Boulevard Curé-Labelle,"Bistro,Burgers,Tartare,Poutine,Salads,Grilled Cheese",https://www.restomontreal.ca/resto/barils-ardoises-prevost/10939/en/
287,Lucille's Mont-Tremblant,46.211272,-74.585776,170A Chemin du Curé Deslauriers,"Seafood/Fish,Grill,Fish & Chips,Tartare,Burgers,Steakhouse",https://www.restomontreal.ca/resto/lucilles-mont-tremblant-mont-tremblant/15956/en/
288,FireGrill,45.493871,-73.705098,3500 Boulevard de la Côte-Vertu,"Steakhouse,Grill,Seafood/Fish,Gluten-free Options",https://www.restomontreal.ca/resto/firegrill-ville-saint-laurent/742/en/
289,Souvlaki Authentique,45.393915,-73.955995,98 Boulevard Perrot,"Greek,Grill,Mediterranean,Seafood/Fish,Vegetarian,Gluten-free Options",https://www.restomontreal.ca/resto/souvlaki-authentique-l-ile-perrot/11678/en/
290,Café RICARDO,45.562016,-73.744895,150 Promenade du Centropolis,"Bistro,Breakfast,Regional,Desserts & Sweets,Tartare,Salads",https://www.restomontreal.ca/resto/cafe-ricardo-chomedey/12176/en/
291,Du Boucher À La Table,45.579934,-73.596107,4919 Rue Jarry E,"Steakhouse,Grill,Italian,Pasta,Tartare,Mussels",https://www.restomontreal.ca/resto/du-boucher-a-la-table-anjou-st-leonard/12534/en/
292,Viana-Sol,45.500669,-73.420259,5428 Boulevard Cousineau,"Portuguese,French,Seafood/Fish,Grill,Bistro,Wild Game",https://www.restomontreal.ca/resto/viana-sol-saint-hubert/1555/en/
293,Muze Lounge & Terrasse,45.507151,-73.569114,355 Boulevard de Maisonneuve O,"Mediterranean,Creative,Fusion,Healthy,Grill,Tartare",https://www.restomontreal.ca/resto/muze-lounge-terrasse-quartier-des-spectacles/16771/en/
294,K2+ Bistro,45.497735,-73.577302,1468 Rue Crescent,"Sushi,Japanese,Fusion,Asian",https://www.restomontreal.ca/resto/k2-bistro-downtown/11501/en/
295,Les Deux Fours,45.551325,-73.599406,2379 Rue Bélanger E,"Pizza,Pasta,Italian,Peruvian,Rotisserie,Fusion",https://www.restomontreal.ca/resto/les-deux-fours-villeray-saint-michel/2936/en/
296,Le Skratch,45.542874,-73.748959,965 Boulevard Curé-Labelle,"Burgers,Pizza,Grill,Salads,Pasta,Poutine",https://www.restomontreal.ca/resto/le-skratch-chomedey/543/en/
297,Marché Artisans,45.500492,-73.567301,900 Boulevard René-Lévesque O,"Breakfast,Ice Cream,Deli,Sandwiches,Salads,Market",https://www.restomontreal.ca/resto/marche-artisans-downtown/13249/en/
298,L'Hamburger,45.538508,-73.605931,933 Rue St-Zotique E,"Burgers,American,Poutine,Comfort Food,Canadian,Juice Bar & Smoothies",https://www.restomontreal.ca/resto/lhamburger-rosemont-la-petite-patrie/13928/en/
299,SHAKER Cuisine & Mixologie,45.513107,-73.571023,3518 Boulevard St-Laurent,"Burgers,Tartare,Comfort Food,Poke Bowl,Poutine,Salads",https://www.restomontreal.ca/resto/shaker-cuisine-mixologie-downtown/13273/en/
300,Mikasa Sushi Bar Chiisai,45.592676,-73.669026,3005 Boulevard Concorde E,"Japanese,Sushi",https://www.restomontreal.ca/resto/mikasa-sushi-bar-chiisai-duvernay/3133/en/
301,La Petite Marche,45.526755,-73.588662,5035 Rue Saint-Denis,"French,Italian,Mediterranean,Breakfast,Café",https://www.restomontreal.ca/resto/la-petite-marche-le-plateau/1099/en/
302,Siam,45.324989,-73.266991,725 Boulevard du Séminaire N,"Thai,Fusion,Asian,Vegetarian,Vegan Options,Gluten-free Options",https://www.restomontreal.ca/resto/siam-st-jean-sur-richelieu/16897/en/
303,DEUX restaurant x bar à vin,45.639338,-73.84187,2 Rue Turgeon,"Market,Creative,Regional,Bistro,Mediterranean,Tapas",https://www.restomontreal.ca/resto/deux-restaurant-x-bar-a-vin-sainte-therese/4895/en/
304,L'Annexe BreWskey,45.509127,-73.551524,360 Rue St-Paul E,"Bistro,Smokehouse,Comfort Food,Pub Food,Grill,Poutine",https://www.restomontreal.ca/resto/lannexe-brewskey-old-montreal/17228/en/
305,Basha,45.774985,-74.002656,249 Rue St-George,"Lebanese,Middle Eastern,Vegetarian,Grill,Salads,Vegan Options",https://www.restomontreal.ca/resto/basha-saint-jerme/13056/en/
306,Chez Delmo,45.502528,-73.558443,275 Rue Notre-Dame O,"French,Seafood/Fish,Tartare,Mussels,Regional,Grill",https://www.restomontreal.ca/resto/chez-delmo-old-montreal/1904/en/
307,Restaurant Solymar Laval,45.577524,-73.712426,443 Boulevard St-Martin O,"Peruvian,Latin American,Seafood/Fish,Grill,Mussels,Soups",https://www.restomontreal.ca/resto/restaurant-solymar-laval-laval-des-rapides/14619/en/
308,Trattoria La Villetta,45.512535,-73.692958,1898 Boulevard Thimens,"Italian,Pizza,Pasta",https://www.restomontreal.ca/resto/trattoria-la-villetta-ville-saint-laurent/3505/en/
309,Panama Rotisserie,45.485195,-73.801396,11604 Boulevard De Salaberry,"Greek,Grill,Mediterranean,Seafood/Fish,BBQ,Rotisserie",https://www.restomontreal.ca/resto/panama-rotisserie-dollard-des-ormeaux/2855/en/
310,Groupe RestosDix30 - Traiteur Corporatif,45.441052,-73.440323,6000 Boulevard Rome,"International,Market,Regional,Healthy,Seafood/Fish,Salads",https://www.restomontreal.ca/resto/groupe-restosdix30-traiteur-corporatif-brossard/14248/en/
311,L'Estaminet,45.560164,-73.657705,1340 Rue Fleury E,"Bistro,French,Comfort Food,Regional,Market,Breakfast",https://www.restomontreal.ca/resto/lestaminet-ahuntsic-cartierville/1110/en/
312,Le Mille Notre-Dame,45.413235,-73.002963,1000 Rue Notre-Dame,"Bistro,Regional,French",https://www.restomontreal.ca/resto/le-mille-notre-dame-saint-cesaire/12234/en/
313,Vieux-Port Steakhouse,45.506228,-73.553578,39 Rue St-Paul E,"Steakhouse,Grill,Seafood/Fish",https://www.restomontreal.ca/resto/vieux-port-steakhouse-old-montreal/1545/en/
314,Club Electric Avenue,45.497736,-73.577477,1476 Rue Crescent,Bar,https://www.restomontreal.ca/resto/club-electric-avenue-downtown/14898/en/
315,Le P'tit Plateau,45.522172,-73.581067,330 Rue Marie-Anne E,"French,Bistro,Vegetarian,Vegan Options,Gluten-free Options",https://www.restomontreal.ca/resto/le-ptit-plateau-le-plateau/1535/en/
316,La Grotte des Fromages,45.579934,-73.596107,4919 Rue Jarry E,"Sandwiches,Pasta,Italian,Deli",https://www.restomontreal.ca/resto/la-grotte-des-fromages-anjou-st-leonard/11190/en/
317,Chez Alexandre et fils,45.500514,-73.574242,1454 Rue Peel,"French,Bistro,Tartare,Market,Seafood/Fish,Steakhouse",https://www.restomontreal.ca/resto/chez-alexandre-et-fils-downtown/22/en/
318,Geppetto Pizzeria,45.549032,-73.591159,2510 Rue Beaubien E,"Pizza,Italian,Bistro,Salads,Pasta",https://www.restomontreal.ca/resto/geppetto-pizzeria-rosemont-la-petite-patrie/5327/en/
319,Il Fornetto,45.433214,-73.681592,1900 Boulevard St-Joseph,"Italian,Pizza",https://www.restomontreal.ca/resto/il-fornetto-lachine/913/en/
320,AliceÔchoux Pâtisserie & Crêperie créative,45.525227,-73.585311,4701 Rue St-Denis,"Crêpes,Pastries,Desserts & Sweets,Café,Gluten-free Options,Ice Cream",https://www.restomontreal.ca/resto/aliceochoux-patisserie-creperie-creative-le-plateau/18842/en/
321,Resto Végo,45.515426,-73.564635,1720 Rue Saint-Denis,"Vegetarian,Vegan Options,Sandwiches,Healthy,Ice Cream,Salads",https://www.restomontreal.ca/resto/resto-vego-latin-quarter/557/en/
322,3 Shish,45.753623,-73.441976,360-84 Rue Industriel,"Lebanese,Middle Eastern,Grill,Vegetarian,Salads,Burgers",https://www.restomontreal.ca/resto/3-shish-repentigny/11866/en/
323,Taasty Thai,45.712078,-73.513019,"323, Montée des Pionniers","Thai,Cambodian,Vietnamese,Asian,Fusion,Gluten-free Options",https://www.restomontreal.ca/resto/taasty-thai-terrebonne-lachenaie/5398/en/
324,Pizzédélic,45.571662,-73.445863,1155A Place Nobel,"Pizza,Pasta,Grill",https://www.restomontreal.ca/resto/pizzedelic-boucherville/4306/en/
325,Restaurant Fellini,45.576194,-73.891958,400 Rue Dubois,"Italian,Pasta,Grill,Tapas,Tartare",https://www.restomontreal.ca/resto/restaurant-fellini-saint-eustache/10931/en/
326,LA BOULETTE,45.546633,-73.593834,2223 Rue Beaubien E,"Poutine,Burgers,Tartare,Bistro,Salads,Comfort Food",https://www.restomontreal.ca/resto/la-boulette-rosemont-la-petite-patrie/5834/en/
327,New Mama C,45.504114,-73.5542,100 Rue Saint-Paul O,"Greek,Mediterranean,Grill,Seafood/Fish,Breakfast,Gluten-free Options",https://www.restomontreal.ca/resto/mama-c-old-montreal/18707/en/
328,Ohana Sushi Vegan,45.523271,-73.583379,330 Avenue Mont-Royal E,"Sushi,Vegan/100% Plant-Based,Vegan Options,Poke Bowl,Healthy,Japanese",https://www.restomontreal.ca/resto/ohana-sushi-vegan-le-plateau/13339/en/
329,Le Déli 440,45.567573,-73.767484,3535 Route Laval O.,"Smoked Meat,Breakfast,Deli,Casse-Croute (Snack Bar),Poutine,Burgers",https://www.restomontreal.ca/resto/le-deli-440-chomedey/11564/en/
330,Restaurant Solymar Montreal,45.543636,-73.620003,7610 Rue St-Hubert,"Peruvian,Latin American,Seafood/Fish,Grill,Mussels,Salads",https://www.restomontreal.ca/resto/restaurant-solymar-montreal-villeray-saint-michel/3418/en/
331,Allô mon Coco,45.510498,-73.562662,70 Rue Sainte- Catherine E,"Breakfast,Salads,Burgers,Grill,Crêpes,Sandwiches",https://www.restomontreal.ca/resto/allo-mon-coco-downtown/12109/en/
332,Le Poutine Bar,45.559017,-73.862584,4750 Boulevard Ste-Rose,"Casse-Croute (Snack Bar),Poutine,Burgers,Comfort Food,Sandwiches,Pizza",https://www.restomontreal.ca/resto/le-poutine-bar-fabreville/11476/en/
333,Les Enfants Terribles,45.447687,-73.429674,100 Avenue de l'Équinoxe,"Comfort Food,Market,French,Bistro,Tartare,Grill",https://www.restomontreal.ca/resto/les-enfants-terribles-brossard/14911/en/
334,Jack Saloon,45.441557,-73.439459,1720 Avenue des Lumières,"Burgers,BBQ,Grill,Steakhouse,Smokehouse,American",https://www.restomontreal.ca/resto/jack-saloon-brossard/6808/en/
335,L'Anaconda Restaurant,45.546946,-73.660343,9920 Boulevard St-Laurent,"Peruvian,Mexican,Colombian,Latin American,Tapas,Grill",https://www.restomontreal.ca/resto/lanaconda-restaurant-ahuntsic-cartierville/15925/en/
336,New TABERNACLE,45.734699,-73.612876,"583, Montée Masson","Bistro,Grill,Market,French,Gluten-free Options",https://www.restomontreal.ca/resto/tabernacle-mascouche/19297/en/
337,Microbrasserie 4 Origines,45.48821,-73.557979,1304 Rue St-Patrick,Bar,https://www.restomontreal.ca/resto/microbrasserie-4-origines-little-burgundy/14599/en/
338,Groupe Satori,45.324989,-73.266991,725 Bd du Séminaire N,Bar,https://www.restomontreal.ca/resto/groupe-satori-st-jean-sur-richelieu/18503/en/
339,Taiyo BBQ,45.441049,-73.437355,9700 Boulevard Leduc,"BBQ,Japanese,Fusion,Grill,Asian",https://www.restomontreal.ca/resto/taiyo-bbq-brossard/19508/en/
340,Viva Restaurant + Bar,45.519164,-73.58084,107 Rue Rachel E,"Italian,Portuguese,Seafood/Fish,Pizza,Pasta,Grill",https://www.restomontreal.ca/resto/viva-restaurant-bar-le-plateau/17184/en/
341,New Kimpo Korean BBQ,45.495304,-73.410174,5959 Boul Cousineau,"Korean,BBQ,Sushi,Japanese,Chinese,Grill",https://www.restomontreal.ca/resto/kimpo-korean-bbq-saint-hubert/18765/en/
342,Maison de Soma,46.09036,-74.578387,380 Chemin Paquette,"International,Market,Regional,Asian,Fusion,Grill",https://www.restomontreal.ca/resto/maison-de-soma-mont-tremblant/17123/en/
343,Grigio,45.341206,-73.285246,1265 Rue Douglas,"Italian,Grill,Pasta,Mussels,Gluten-free Options",https://www.restomontreal.ca/resto/grigio-st-jean-sur-richelieu/14079/en/
344,Menthe et Couscous,45.514805,-73.563635,361 Rue Émery,"Middle Eastern,Moroccan,Mediterranean,Grill,Vegetarian,Halal",https://www.restomontreal.ca/resto/menthe-et-couscous-latin-quarter/2438/en/
345,Allô mon Coco,45.494143,-73.656004,5405 Rue des Jockeys,"Breakfast,Salads,Burgers,Grill,Crêpes,Sandwiches",https://www.restomontreal.ca/resto/allo-mon-coco-cote-des-neiges/14764/en/
346,Kyomi,45.438421,-73.622611,7660 Boulevard Newman,"Asian,Japanese,Sushi,Fusion,Tartare,Gluten-free Options",https://www.restomontreal.ca/resto/kyomi-lasalle/2783/en/
347,Pandora Supper Club,45.576496,-73.713718,579 Boulevard St-Martin O,"Tapas,Sushi,Tartare,Creative",https://www.restomontreal.ca/resto/pandora-supper-club-chomedey/16846/en/
348,Rizière D'Asie Express,45.325595,-73.736674,529 Boulevard St-Jean Baptiste,"Sushi,Japanese,Vietnamese,Asian,Dumplings,Bubble tea",https://www.restomontreal.ca/resto/riziere-dasie-express-chateauguay/17270/en/
349,Labarake Caserne à Manger,45.544864,-73.561197,3165 Rue Rachel E,"Regional,Grill,BBQ,Tartare,Fish & Chips,Market",https://www.restomontreal.ca/resto/labarake-caserne-a-manger-rosemont-la-petite-patrie/7357/en/
350,Le Blind Pig,45.548137,-73.542573,3882 Rue Ontario E,"Smokehouse,BBQ,Comfort Food,Chicken Wings,Poutine,Smoked Meat",https://www.restomontreal.ca/resto/le-blind-pig-hochelaga-maisonneuve/9035/en/
351,Jérôme Ferrer - Europea,45.496482,-73.571779,1065 Rue de la Montagne,"French,Vegetarian,Tartare",https://www.restomontreal.ca/resto/jerome-ferrer-europea-downtown/685/en/
352,New Baguette Brochette,45.537416,-73.606174,6672 Rue St-Hubert,"Sandwiches,Salads,Café,French,African",https://www.restomontreal.ca/resto/baguette-brochette-rosemont-la-petite-patrie/17567/en/
353,Séoul Yokoso,45.459472,-73.466552,7400 Boulevard Taschereau,"Korean,BBQ,Sushi,Asian,Grill,Gluten-free Options",https://www.restomontreal.ca/resto/seoul-yokoso-brossard/13463/en/
354,Le Georgia,45.483563,-73.629822,5112 Boulevard Décarie,"Georgian,Russian",https://www.restomontreal.ca/resto/le-georgia-cote-des-neiges/1250/en/
355,Resto Bar Nemo,45.514553,-73.571889,64 Rue Prince-Arthur E,"Vietnamese,Asian,Fusion,Grill,Thai,Tapas",https://www.restomontreal.ca/resto/resto-bar-nemo-le-plateau/17375/en/
356,Jacopo,45.507707,-73.553255,436 Place Jacques-Cartier,"Italian,Pasta,Charcuterie",https://www.restomontreal.ca/resto/jacopo-old-montreal/12666/en/
357,Jacques Cartier Pizza,45.340515,-73.285566,174 Boulevard St-Luc S-117,"Pizza,Poutine,Comfort Food,Gluten-free Options",https://www.restomontreal.ca/resto/jacques-cartier-pizza-st-jean-sur-richelieu/17158/en/
358,Le BAM - Bière au Menu,45.665504,-73.76141,"71, Montée Gagnon","Pub Food,Poutine,Burgers,Smoked Meat,Fish & Chips,Salads",https://www.restomontreal.ca/resto/bam-biere-menu-bois-des-filion/3635/en/
359,Matsuno Sushi Fusion,45.474262,-73.834567,3811 Boulevard St-Jean,"Sushi,Japanese,Asian,Fusion,Szechuan",https://www.restomontreal.ca/resto/matsuno-sushi-fusion-dollard-des-ormeaux/11964/en/
360,Allô mon Coco,45.533353,-73.65564,9197 Boulevard de l'Acadie,"Breakfast,Salads,Burgers,Grill,Crêpes,Sandwiches",https://www.restomontreal.ca/resto/allo-mon-coco-ahuntsic-cartierville/10393/en/
361,Le Rose-Marie,45.527799,-73.549726,1550 Rue Fullum,"Italian,Pasta,Market,Creative,Charcuterie",https://www.restomontreal.ca/resto/le-rose-marie-village-centre-sud/13567/en/
362,ZIBO! Restaurant-Bar,45.405803,-74.042664,3206 Boulevard de la Gare,"Californian,Grill,Salads,Pasta,Pizza,Burgers",https://www.restomontreal.ca/resto/zibo-restaurant-bar-vaudreuil-dorion/12570/en/
363,Bazart,45.495309,-73.557365,950 Rue Ottawa,"Grill,Mediterranean,Vegetarian,Tartare,Tapas",https://www.restomontreal.ca/resto/bazart-griffintown/14640/en/
364,Clébard,45.524561,-73.583685,4557 Rue Saint-Denis,"Bistro,Poutine",https://www.restomontreal.ca/resto/clebard-le-plateau/6741/en/
365,La Maison Pékin,45.590386,-73.669985,2850 Boulevard de la Concorde E,"Chinese,Szechuan,Asian,Dumplings",https://www.restomontreal.ca/resto/la-maison-pekin-duvernay/1208/en/
366,3 Amigos,45.494424,-73.578984,1657 Rue Ste-Catherine O,"Mexican,Cajun,Latin American",https://www.restomontreal.ca/resto/3-amigos-downtown/1656/en/
367,New Café Restaurant Nab,45.469856,-73.608698,5563 Chemin Upper Lachine,"Persian,Iranian,Mediterranean,Middle Eastern,Vegetarian,Breakfast",https://www.restomontreal.ca/resto/cafe-restaurant-nab-notre-dame-de-grace-ndg/3348/en/
368,La Perle Vietnamienne,45.605706,-73.731939,2020 Boulevard des Laurentides,"Vietnamese,Asian,Sushi,Japanese,Thai",https://www.restomontreal.ca/resto/la-perle-vietnamienne-vimont/3407/en/
369,Bistro Des Bières Belges,45.500011,-73.486083,2088 Rue Montcalm,"Belgian,Bistro,Grill,Mussels,Comfort Food,Poke Bowl",https://www.restomontreal.ca/resto/bistro-des-bieres-belges-saint-hubert/176/en/
370,Katsu Sushi,45.49627,-73.408507,5986 Boulevard Cousineau,"Sushi,Japanese,Fusion,Asian,Vegetarian,Poke Bowl",https://www.restomontreal.ca/resto/katsu-sushi-saint-hubert/6668/en/
371,Chez Meiko Terrebonne,45.76429,-73.725897,7000 Boulevard Laurier,"Asian,Sushi,Fusion,Japanese,Grill,Tartare",https://www.restomontreal.ca/resto/chez-meiko-terrebonne-terrebonne-lachenaie/12115/en/
372,Chez Lien,45.529468,-73.512767,753 Rue St-Laurent O,"Vietnamese,Grill,Asian,Healthy",https://www.restomontreal.ca/resto/chez-lien-longueuil/3244/en/
373,La Piazzetta,45.517692,-73.557106,1101 Rue Ste-Catherine E,"Pizza,Italian,Salads,Bistro,Mediterranean,Pasta",https://www.restomontreal.ca/resto/la-piazzetta-village-centre-sud/1220/en/
374,Aldea,45.519585,-73.584857,4403 Boulevard St-Laurent,"Portuguese,Grill,Mediterranean,Seafood/Fish,Tapas",https://www.restomontreal.ca/resto/aldea-le-plateau/11355/en/
375,Au Coin Berbere Couscous Montreal,45.515427,-73.571003,166 Rue Prince Arthur E,"Couscous,Mediterranean,Moroccan",https://www.restomontreal.ca/resto/au-coin-berbere-couscous-montreal-le-plateau/30/en/
376,La Fondue,45.710244,-73.651192,1421 Chemin Gascon,"Fondue,Crêpes,Gluten-free Options",https://www.restomontreal.ca/resto/la-fondue-terrebonne-lachenaie/19994/en/
377,Ristorante Voga,45.873798,-74.076592,3029 Boulevard Curé-Labelle,"Italian,Pizza,Pasta",https://www.restomontreal.ca/resto/ristorante-voga-prevost/11075/en/
378,Le Roux,45.335011,-72.651664,65 Rue de la Rive Droite,"Bistro,Market,Tapas,Seafood/Fish,Grill,Charcuterie",https://www.restomontreal.ca/resto/le-roux-bromont/16975/en/
379,Le Perché Bar Terrasse,45.507284,-73.553191,153 Rue St-Amable,"Poke Bowl,Mexican,Hawaiian,Californian,Healthy,Tartare",https://www.restomontreal.ca/resto/le-perche-bar-terrasse-old-montreal/11904/en/
380,Microbrasserie Shawbridge,45.872752,-74.076194,3023 Boulevard Curé-Labelle,"Deli,Sandwiches,Grill,Pizza,Poutine,Smoked Meat",https://www.restomontreal.ca/resto/microbrasserie-shawbridge-prevost/12685/en/
381,Janine Café-Brunch,45.464835,-73.566688,3900 Rue Wellington,"Breakfast,Café,Bistro,Healthy,Creative,Desserts & Sweets",https://www.restomontreal.ca/resto/janine-cafe-brunch-verdun/12744/en/
382,Bord'Elle Boutique Bar & Restaurant,45.501915,-73.559546,390 Rue St-Jacques O.,"Market,Tartare,Seafood/Fish,Grill,Pasta,Gluten-free Options",https://www.restomontreal.ca/resto/bordelle-boutique-bar-restaurant-old-montreal/11526/en/
383,Osaka Sushi,45.538784,-73.746446,758 Boulevard Curé-Labelle,"Sushi,Japanese,Asian,Gluten-free Options",https://www.restomontreal.ca/resto/osaka-sushi-chomedey/1575/en/
384,Club Pelicano,45.504502,-73.563422,1076 Rue de Bleury,"Bar,Comfort Food,Peruvian",https://www.restomontreal.ca/resto/club-pelicano-downtown/12411/en/
385,L'in-time,45.462943,-73.567736,299 Rue de l'Église,"Italian,Seafood/Fish,Mediterranean,Tartare,Pasta,Mussels",https://www.restomontreal.ca/resto/lin-time-verdun/2559/en/
386,Sortez les canons,45.569229,-73.199748,3 Rue Saint-Jean-Baptiste,"Market,Tartare,Pasta,Charcuterie,Grill,Gluten-free Options",https://www.restomontreal.ca/resto/sortez-les-canons-beloeil/14646/en/
387,O.Noir,45.515089,-73.571374,124 Rue Prince Arthur E,"International,French,Contemporary/Modern,Fusion,Tartare,Burgers",https://www.restomontreal.ca/resto/o-noir-downtown/1897/en/
388,Restaurant Abouda,45.53575,-73.601864,6349 Rue St-Hubert,"Tunisian,Grill,Vegetarian,Vegan Options,Mediterranean",https://www.restomontreal.ca/resto/restaurant-abouda-rosemont-la-petite-patrie/16986/en/
389,Dila,45.750894,-73.608395,2781 Chemin Ste-Marie,"Grill,Italian,Sandwiches,Chicken Wings,Fondue,Pasta",https://www.restomontreal.ca/resto/dila-mascouche/17114/en/
390,Geppetto Pizzeria,45.568273,-73.181682,537 Boulevard Sir-Wilfrid-Laurier,"Pizza,Bistro,Italian,Salads,Pasta",https://www.restomontreal.ca/resto/geppetto-pizzeria-mont-saint-hilaire/12501/en/
391,El Gordo,45.500499,-73.510133,575 Avenue Victoria,"Mexican,Latin American,Vegetarian,Gluten-free Options",https://www.restomontreal.ca/resto/el-gordo-saint-lambert/17774/en/
392,Dirty D,45.44476,-73.435535,"1505 Avenue des Lumières, suite 15","Mexican,Latin American,Tapas,Vegetarian,Gluten-free Options",https://www.restomontreal.ca/resto/dirty-d-brossard/12351/en/
393,Jack Saloon,46.342313,-72.54259,332 Rue des Forges,"Burgers,BBQ,Grill,Steakhouse,Smokehouse,American",https://www.restomontreal.ca/resto/jack-saloon-trois-rivieres/11138/en/
394,Sushi Taxi,45.753189,-73.441517,84 Boulevard Industriel,"Sushi,Asian,Vegetarian,Poke Bowl,Gluten-free Options",https://www.restomontreal.ca/resto/sushi-taxi-repentigny/13815/en/
395,Aux Lilas,45.52221,-73.602866,5570 Avenue du Parc,"Lebanese,Middle Eastern,Vegetarian,Mediterranean",https://www.restomontreal.ca/resto/aux-lilas-mile-end/2349/en/
396,SpiceBros,45.648555,-73.499868,91 Rue St-Catherine E,"Indian,Sandwiches,Poutine,Chicken Wings,Vegetarian",https://www.restomontreal.ca/resto/spicebros-quartier-des-spectacles/13306/en/
397,Sushi Taxi,46.37671,-72.552619,4 Rue des Ormeaux,"Sushi,Asian,Vegetarian,Poke Bowl,Gluten-free Options",https://www.restomontreal.ca/resto/sushi-taxi-cap-de-la-madeleine/12225/en/
398,3 Amigos,45.569989,-73.448524,1150A Rue Volta,"Mexican,Cajun,Latin American",https://www.restomontreal.ca/resto/3-amigos-boucherville/14062/en/
399,Masala Art,45.48508,-73.801522,11612 Boulevard de Salaberry,"Indian,Fusion",https://www.restomontreal.ca/resto/masala-art-dollard-des-ormeaux/14145/en/
400,Resto-Bar Le Turf au Oasis Surf,45.444449,-73.433351,9520 Boulevard Leduc,"International,Californian,Burgers,Salads,Tartare,Grill",https://www.restomontreal.ca/resto/resto-bar-le-turf-au-oasis-surf-brossard/8770/en/
402,ZIBO! Restaurant-Bar,45.639488,-72.967176,1305 Rue Daniel Johnson O,"Californian,Grill,Salads,Pasta,Pizza,Burgers",https://www.restomontreal.ca/resto/zibo-restaurant-bar-saint-hyacinthe/12569/en/
403,Sushi Do,45.528365,-73.787146,920 Route Chomedey,"Sushi,Japanese,Grill,Fusion,Asian,Thai",https://www.restomontreal.ca/resto/sushi-sainte-dorothee/5726/en/
404,Lucille's Fairview,45.462955,-73.833099,6701 Route Transcanadienne,"Seafood/Fish,Grill,Fish & Chips,Tartare,Burgers,Steakhouse",https://www.restomontreal.ca/resto/lucilles-fairview-pointe-claire/15181/en/
405,Pincette - Bar à Homard,45.506489,-73.553006,94 Rue Saint-Paul E,"Seafood/Fish,Fish & Chips,Tartare,Pasta,Breakfast",https://www.restomontreal.ca/resto/pincette-bar-a-homard-old-montreal/14657/en/
406,Jacques Cartier Pizza,45.497619,-73.479372,2029 Boulevard Édouard,"Pizza,Poutine,Burgers,Comfort Food,Pasta,Sandwiches",https://www.restomontreal.ca/resto/jacques-cartier-pizza-saint-hubert/1189/en/
407,Pic Bois Bistro Taverne,45.720627,-73.493919,30 Rue Émile-Despins,"Regional,Bistro,Grill,Creative",https://www.restomontreal.ca/resto/pic-bois-bistro-taverne-charlemagne/7368/en/
408,Azalea Buvette Caviste Terrasse,45.522426,-73.57995,4306 Rue Saint-Denis,"Persian,Mediterranean,Fusion,Middle Eastern,Bistro,Tapas",https://www.restomontreal.ca/resto/azalea-buvette-caviste-terrasse-le-plateau/15859/en/
409,Restaurant Falcon,45.460101,-74.175707,59 Rue Cambridge,"Indian,Italian,Tapas,Pizza,Pasta,Vegetarian",https://www.restomontreal.ca/resto/restaurant-falcon-hudson/17193/en/
410,Aime tes Ailes,45.538244,-73.607395,6763 Rue St-Hubert,"Chicken Wings,Fried Chicken,Comfort Food,Casse-Croute (Snack Bar)",https://www.restomontreal.ca/resto/aime-tes-ailes-rosemont-la-petite-patrie/17750/en/
411,New Vertigo,45.562374,-73.743905,1880 Avenue Pierre-Péladeau,"Tartare,Burgers,Grill,Bistro,Poke Bowl,Salads",https://www.restomontreal.ca/resto/vertigo-chomedey/18322/en/
412,Buon Gusto,45.599905,-73.68405,2495 Boulevard St-Martin E,"Italian,Pizza,Pasta",https://www.restomontreal.ca/resto/buon-gusto-duvernay/5494/en/
413,Montreal Kebab,45.50719,-73.552505,138 Rue St-Paul E,"Lebanese,Mediterranean,Vegetarian,Halal,Grill,Middle Eastern",https://www.restomontreal.ca/resto/montreal-kebab-old-montreal/12529/en/
414,Asiana,45.539504,-73.509541,121 Rue St-Charles O,"Thai,Szechuan,Asian",https://www.restomontreal.ca/resto/asiana-vieux-longueuil/5913/en/
415,BALOS,45.487233,-73.586664,4114 Rue Sainte-Catherine O,"Mediterranean,Greek,Seafood/Fish,Grill",https://www.restomontreal.ca/resto/balos-westmount/14017/en/
416,Le Mista,45.527646,-73.342739,1485 Rue de Montarville,"Italian,Mediterranean,Pasta,Healthy,Vegetarian",https://www.restomontreal.ca/resto/le-mista-saint-bruno/12798/en/
417,Maggie Oakes,45.507589,-73.553029,426 Place Jacques-Cartier,"Market,Steakhouse,Grill,Salads,Burgers,Breakfast",https://www.restomontreal.ca/resto/maggie-oakes-old-montreal/10985/en/
418,Le 409,45.5005,-73.557676,409 Rue McGill,"Indian,Pakistani,Tapas,Vegetarian,Vegan Options,Fusion",https://www.restomontreal.ca/resto/le-409-old-montreal/12788/en/
419,Le Bleu Raisin,45.527999,-73.591255,5237 Rue Saint-Denis,"French,Regional,Market,Tartare,Wild Game",https://www.restomontreal.ca/resto/le-bleu-raisin-le-plateau/1720/en/
420,Poissonnerie Bistro Olynicks,45.893273,-74.155621,50 Avenue de la Gare,"Seafood/Fish,Tartare,Fish & Chips,Market,Grill,Pasta",https://www.restomontreal.ca/resto/poissonnerie-bistro-olynicks-saint-sauveur/14886/en/
421,Le Jardin des Fondues,45.693009,-73.635566,186 Rue Ste-Marie,"Fondue,French,Raclette,Tapas,Grill,Salads",https://www.restomontreal.ca/resto/le-jardin-des-fondues-terrebonne-lachenaie/1587/en/
422,New Sushi Taxi,45.646433,-73.839385,305 Boulevard du Curé-Labelle local 104,"Sushi,Asian,Vegetarian,Poke Bowl",https://www.restomontreal.ca/resto/sushi-taxi-sainte-therese/19217/en/
423,Le Grey Lounge,45.548462,-73.865617,6000 Boulevard Arthur-Sauvé,"Grill,Tartare,Seafood/Fish,Tapas,Salads,Chicken Wings",https://www.restomontreal.ca/resto/le-grey-lounge-laval-sur-le-lac/16143/en/
424,Pâtisserie Rustique,45.473548,-73.588204,4615 Rue Notre-Dame O,"Bakery,Desserts & Sweets,Pastries,Café",https://www.restomontreal.ca/resto/patisserie-rustique-saint-henri/8191/en/
425,Toqué!,45.502963,-73.561217,900 Place Jean-Paul Riopelle,"Market,Regional,Creative,Contemporary/Modern,French,Tartare",https://www.restomontreal.ca/resto/toque-old-montreal/1443/en/
426,New Ristorante Pizzeria Corneli,45.606015,-73.731297,2015 Boulevard des Laurentides E,"Italian,Pizza,Pasta,Salads,Grill,Mediterranean",https://www.restomontreal.ca/resto/ristorante-pizzeria-corneli-vimont/20048/en/
427,La Piazzetta,45.564026,-73.187726,365 Boulevard Sir-Wilfrid-Laurier,"Pizza,Italian,Salads,Bistro,Mediterranean,Pasta",https://www.restomontreal.ca/resto/la-piazzetta-mont-saint-hilaire/2734/en/
428,Steak Frites St-Paul,45.502589,-73.561151,405 Rue St-Antoine O,"Steakhouse,Grill,Tartare",https://www.restomontreal.ca/resto/steak-frites-st-paul-old-montreal/3135/en/
429,Beroya,45.555696,-73.752072,3455 Boulevard St-Martin O,"Syrian,Middle Eastern,Grill",https://www.restomontreal.ca/resto/beroya-chomedey/11478/en/
430,Salon de thé Chaï Tea Lounge,45.509513,-73.57399,3506 Avenue du Parc,"Tea,Desserts & Sweets,Healthy,Sandwiches,Salads,Vegetarian",https://www.restomontreal.ca/resto/salon-chai-tea-lounge-le-plateau/5841/en/
431,Chez BOSS & fils,45.467703,-73.566137,3610 Rue Wellington,"Seafood/Fish,Market,Bistro,Asian,Gluten-free Options",https://www.restomontreal.ca/resto/chez-boss-fils-verdun/9276/en/
432,La Maison Grecque,45.521371,-73.575149,450 Avenue Duluth E,"Greek,Mediterranean,Grill,Tapas,Market,Vegetarian",https://www.restomontreal.ca/resto/la-maison-grecque-le-plateau/1288/en/
433,Saint-Houblon,45.531923,-73.612499,6700 Boulevard St-Laurent,"Burgers,Poutine,Comfort Food,Tartare,BBQ,Chicken Wings",https://www.restomontreal.ca/resto/saint-houblon-little-italy/13175/en/
434,Lulu Bistro,45.591975,-73.430795,1025 Rue Lionel-Daunais,"French,Bistro,Market,Grill,Seafood/Fish,Comfort Food",https://www.restomontreal.ca/resto/lulu-bistro-boucherville/2496/en/
435,L'Auberge Saint-Gabriel,45.506504,-73.553982,426 Rue St-Gabriel,"Grill,Fondue,Seafood/Fish,French,Tartare,Regional",https://www.restomontreal.ca/resto/lauberge-saint-gabriel-old-montreal/34/en/
436,Aurochs Steakhouse - Lounge +18ans,45.441557,-73.439459,1720 Avenue des Lumières #15,"Creative,Contemporary/Modern,Seafood/Fish,Steakhouse,Grill,Market",https://www.restomontreal.ca/resto/aurochs-steakhouse-lounge-18ans-brossard/4309/en/
437,Café du Théâtre - Brasserie Française,45.441052,-73.440323,6000 Boulevard de Rome,"French,Regional,Café,Bistro,Breakfast,Tartare",https://www.restomontreal.ca/resto/cafe-du-theatre-brasserie-francaise-brossard/8542/en/
438,Casa Vinho,45.555455,-73.570456,3750 Rue Masson,"Portuguese,Grill",https://www.restomontreal.ca/resto/casa-vinho-rosemont-la-petite-patrie/1446/en/
439,Ristorante Sorrento,45.643189,-73.860034,350 Rue Sicard,"Italian,Grill,Pasta,Pizza",https://www.restomontreal.ca/resto/ristorante-sorrento-sainte-therese/2447/en/
440,Restaurant L'Osso,45.534065,-73.617392,7130 Boulevard St-Laurent,"Steakhouse,Mediterranean,Grill,Italian,Seafood/Fish,Contemporary/Modern",https://www.restomontreal.ca/resto/restaurant-losso-little-italy/17201/en/
441,Silva Grillades,45.538528,-73.510094,177 Rue St-Charles O.,"Steakhouse,Portuguese,Seafood/Fish,Grill",https://www.restomontreal.ca/resto/silva-grillades-longueuil/3437/en/
442,Ermitage,45.494769,-73.618897,5024 Chemin de la Côte-des-Neiges,Russian,https://www.restomontreal.ca/resto/ermitage-cote-des-neiges/681/en/
443,Joséphine,45.520846,-73.575569,4007 Rue Saint-Denis,"Seafood/Fish,Bistro",https://www.restomontreal.ca/resto/josephine-le-plateau/12440/en/
444,Restaurant Kampot,45.628657,-73.848455,3375 Avenue des Grandes Tourelles,"Asian,Thai,Cambodian,Laotian,Vietnamese,Gluten-free Options",https://www.restomontreal.ca/resto/restaurant-kampot-boisbriand/15283/en/
445,Restaurant Le Grill,46.342303,-72.543064,350 Rue des Forges,"Steakhouse,Grill,Seafood/Fish,Tartare,Burgers,BBQ",https://www.restomontreal.ca/resto/restaurant-le-grill-trois-rivieres/11169/en/
446,Commodore Café,45.507151,-73.569114,355 Boul. de Maisonneuve O,"Café,Breakfast,Pastries,Desserts & Sweets,Vegetarian,Salads",https://www.restomontreal.ca/resto/commodore-cafe-quartier-des-spectacles/16779/en/
447,La Belle et La Barbe - Bistro Urbain,45.495238,-73.41007,5961 Boulevard Cousineau,"Bistro,Tartare,Seafood/Fish,Tapas,Grill,Pasta",https://www.restomontreal.ca/resto/la-belle-et-la-barbe-bistro-urbain-saint-hubert/10945/en/
448,Les Cuisiniers,45.577039,-73.330811,1970 Rue Léonard-de-Vinci,"Market,Seafood/Fish,Grill,Steakhouse,Comfort Food,Tartare",https://www.restomontreal.ca/resto/les-cuisiniers-sainte-julie/14469/en/
449,Sésame,45.505526,-73.37615,355 Boulevard des Promenades,"Asian,Fusion,Chinese,Japanese,Thai,Vegetarian",https://www.restomontreal.ca/resto/sesame-saint-bruno/15681/en/
450,L'étoile de L'Océan,45.519132,-73.580873,101 Rue Rachel E,"Portuguese,Tapas,Grill,Seafood/Fish,Gluten-free Options",https://www.restomontreal.ca/resto/letoile-de-locean-le-plateau/1116/en/
451,Mucca,45.533805,-73.609803,236 Rue St-Zotique E,"Italian,Steakhouse,Pasta,Bistro,Market,Contemporary/Modern",https://www.restomontreal.ca/resto/mucca-little-italy/13443/en/
452,Central Kitchen by BP,45.538418,-73.607255,6763 Rue St-André,"Peruvian,Latin American,Gluten-free Options",https://www.restomontreal.ca/resto/central-kitchen-by-bp-rosemont-la-petite-patrie/17422/en/
453,Stella Pizzeria,45.540991,-73.608192,1100 Rue Bélanger,"Pizza,Italian,Pasta",https://www.restomontreal.ca/resto/stella-pizzeria-rosemont-la-petite-patrie/14654/en/
454,Boustan,45.466421,-73.623343,6202 Rue Sherbrooke O,"Lebanese,Mediterranean,Middle Eastern,Vegetarian,Vegan Options,Couscous",https://www.restomontreal.ca/resto/boustan-notre-dame-de-grace-ndg/11629/en/
455,L'Aurochs Steakhouse,45.442082,-73.439189,1720 Avenue des Lumières #5,"Steakhouse,Grill,Seafood/Fish,Tartare,Market,Burgers",https://www.restomontreal.ca/resto/laurochs-steakhouse-brossard/2155/en/
456,Le Satori Sushi,45.355178,-73.297761,290 Boulevard St-Luc,"Japanese,Sushi,Fusion,Poke Bowl,Ramen,Tartare",https://www.restomontreal.ca/resto/le-satori-sushi-st-jean-sur-richelieu/3327/en/
457,Gerry's Delicatessen,45.549319,-73.54166,3982 Rue Ontario E,"Smoked Meat,Deli,Comfort Food,Canadian,Pizza,Pasta",https://www.restomontreal.ca/resto/gerrys-delicatessen-hochelaga-maisonneuve/855/en/
458,Guacamole y Tequila,45.398036,-71.930325,2340 Rue King O,"Mexican,Latin American,Gluten-free Options,Vegetarian,Vegan Options",https://www.restomontreal.ca/resto/guacamole-y-tequila-sherbrooke/11635/en/
459,Bonaparte,45.503248,-73.556076,443 Rue St-François-Xavier,"French,Tartare,Seafood/Fish,Gluten-free Options",https://www.restomontreal.ca/resto/bonaparte-old-montreal/194/en/
460,McLean's Pub,45.499532,-73.572196,1210 Rue Peel,"Pub Food,Fish & Chips,Poutine,Burgers,Comfort Food",https://www.restomontreal.ca/resto/mcleans-pub-downtown/1295/en/
461,Khyber Pass,45.521865,-73.574699,506 Avenue Duluth E,"Afghan,Middle Eastern",https://www.restomontreal.ca/resto/khyber-pass-le-plateau/1027/en/
462,San Antonio Grill & Pâtes,45.719081,-73.622902,"1368, Montée Masson","Grill,Steakhouse,Burgers,Pasta,BBQ,Salads",https://www.restomontreal.ca/resto/san-antonio-grill-pates-terrebonne-lachenaie/2545/en/
463,Trebbiano,45.539225,-73.509575,135 Rue St-Charles O.,"Italian,Pasta,Gluten-free Options",https://www.restomontreal.ca/resto/trebbiano-longueuil/4688/en/
464,Il Pazzesco,45.600639,-73.577024,7031 Rue Jarry E,"Italian,Pasta,Grill,Seafood/Fish,Pizza,Gluten-free Options",https://www.restomontreal.ca/resto/il-pazzesco-anjou-st-leonard/1498/en/
465,Randolph Pub Ludique Quartier Latin,45.516443,-73.56591,2041 Rue Saint-Denis,"Comfort Food,Burgers,Poutine,Fish & Chips,Salads,Tartare",https://www.restomontreal.ca/resto/randolph-pub-ludique-quartier-latin-latin-quarter/6911/en/
466,ZEEZ,45.520488,-73.586309,19 Avenue Mont-Royal E,"Burgers,Comfort Food,Poutine,Halal,Gluten-free Options",https://www.restomontreal.ca/resto/zeez-le-plateau/17534/en/
467,New La Calebasse: cuisine fusion africaine et épicerie fine tropicale,46.35837,-72.58815,4370 Boulevard des Forges,"African,Caribbean,Seafood/Fish,Exotic,Fusion,Gluten-free Options",https://www.restomontreal.ca/resto/la-calebasse-cuisine-fusion-africaine-et-epicerie-fine-tropicale-trois-rivieres/18913/en/
468,Restaurant Shifu,45.49643,-73.578525,1460 Rue Mackay,"Chinese,Asian,Grill,Dumplings,Soups,Vegetarian",https://www.restomontreal.ca/resto/restaurant-shifu-shaughnessy-village/16326/en/
469,Steak Frites St-Paul,45.571946,-73.742686,2125 Boulevard Le Carrefour,"Steakhouse,Grill,Tartare",https://www.restomontreal.ca/resto/steak-frites-st-paul-chomedey/1690/en/
470,Amaraya Resto-Café,45.519933,-73.70194,2135 Boulevard Marcel-Laurin,"Middle Eastern,Burgers,Café,Sandwiches,Grill,Pasta",https://www.restomontreal.ca/resto/amaraya-resto-cafe-ville-saint-laurent/15328/en/
471,Le Marlow,45.48783,-73.399409,7161 Boulevard Cousineau,"Bistro,Market,Grill,Regional,Tartare,Creative",https://www.restomontreal.ca/resto/le-marlow-saint-hubert/14686/en/
472,Soba & Sushi Bar,45.474987,-73.608325,5227 Rue Sherbrooke O,"Sushi,Japanese,Chinese,Szechuan,Bubble tea,Soups",https://www.restomontreal.ca/resto/soba-sushi-bar-cote-des-neiges/5703/en/
473,Le Semaphore,45.450412,-73.740745,705 Avenue Michel-Jasmin,"International,Healthy,Breakfast,Grill,Pasta,Burgers",https://www.restomontreal.ca/resto/le-semaphore-dorval/13102/en/
474,BreWskey Taproom,45.50952,-73.551185,385 Rue de la Commune E,"Bistro,Pub Food,Café,Tapas,Market,Gluten-free Options",https://www.restomontreal.ca/resto/brewskey-taproom-old-montreal/12969/en/
475,Olé Tapas,45.403902,-73.953011,132 Rue Ste Anne,"Spanish,Tapas,Market,Grill,Seafood/Fish,Charcuterie",https://www.restomontreal.ca/resto/ole-tapas-sainte-anne-de-bellevue/12072/en/
476,Phuket,45.577392,-73.59806,4673 Rue Jarry E,"Thai,Sushi,Asian,Poke Bowl,Tartare",https://www.restomontreal.ca/resto/phuket-anjou-st-leonard/1816/en/
477,Trattoria Romantica,45.520112,-73.81266,654 Chemin du Bord-de-l'Eau,"Italian,Pasta,Seafood/Fish",https://www.restomontreal.ca/resto/trattoria-romantica-sainte-dorothee/11341/en/
478,Terrasse sur l'Auberge,45.506393,-73.552795,97 Rue de la Commune Est,"Tapas,International",https://www.restomontreal.ca/resto/terrasse-sur-lauberge-old-montreal/4648/en/
479,La Piazzetta,45.393601,-72.707383,252 Rue Denison E local 103,"Pizza,Italian,Salads,Bistro,Mediterranean,Pasta",https://www.restomontreal.ca/resto/la-piazzetta-granby/1221/en/
480,Randolph Pub Ludique Centropolis,45.560983,-73.745685,490 Promenade du Centropolis,"Comfort Food,Burgers,Poutine,Fish & Chips,Salads,Tartare",https://www.restomontreal.ca/resto/randolph-pub-ludique-centropolis-chomedey/12968/en/
481,Tag Resto Bar,45.64234,-73.860448,270 Rue Sicard,"International,Burgers,Chicken Wings,Comfort Food,Grilled Cheese,Poutine",https://www.restomontreal.ca/resto/tag-resto-bar-sainte-therese/15556/en/
482,Le Carré,45.503616,-73.567239,1191 Place Phillips,"Market,Mediterranean,Regional,Contemporary/Modern,Gluten-free Options",https://www.restomontreal.ca/resto/le-carre-downtown/12759/en/
483,Mikasa Sushi Bar & Yakiniku,45.562072,-73.74556,175 Promenade du Centropolis,"Sushi,Japanese,Seafood/Fish,Soups,Salads,Gluten-free Options",https://www.restomontreal.ca/resto/mikasa-sushi-bar-yakiniku-chomedey/2242/en/
484,Sushi Taxi,45.313892,-72.638811,201 Rue Champlain,"Sushi,Asian,Vegetarian,Poke Bowl,Gluten-free Options",https://www.restomontreal.ca/resto/sushi-taxi-bromont/14779/en/
485,Brasserie 701,45.50539,-73.557464,701 Côte de la Place d'Armes,"Creative,Eclectic,Charcuterie,International,Breakfast,Fusion",https://www.restomontreal.ca/resto/brasserie-701-old-montreal/2535/en/
486,New Restaurant Luce,45.729867,-73.456993,313 Rue Notre-Dame,"Italian,Pizza,Pasta",https://www.restomontreal.ca/resto/restaurant-luce-repentigny/20127/en/
487,Boeuf Cochon,45.563373,-73.728551,1553 Boulevard le Corbusier,"Steakhouse,Grill,Burgers,BBQ,Tartare,Poutine",https://www.restomontreal.ca/resto/boeuf-cochon-chomedey/12024/en/
488,Restaurant Yum & Shine,45.551007,-73.760604,1690 Rue Robinson,"Asian,Chinese,Fusion,Soups,Ramen,Grill",https://www.restomontreal.ca/resto/restaurant-yum-shine-chomedey/17366/en/
489,McKibbins Irish Pub,45.496754,-73.57735,1426 Rue Bishop,"Irish,Pub Food,Fish & Chips,Chicken Wings",https://www.restomontreal.ca/resto/mckibbins-irish-pub-downtown/1447/en/
490,Chez Doval,45.52055,-73.582675,150 Rue Marie-Anne E,"Portuguese,Grill,Seafood/Fish",https://www.restomontreal.ca/resto/chez-doval-le-plateau/1547/en/
491,Saint Sushi,45.52114,-73.575347,424 Avenue Duluth E,"Sushi,Japanese",https://www.restomontreal.ca/resto/saint-sushi-le-plateau/6343/en/
492,Bharati,46.025069,-73.437794,352 Rue Notre-Dame,"Indian,Vegetarian,Halal,Gluten-free Options",https://www.restomontreal.ca/resto/bharati-joliette/12179/en/
493,Rumi,45.519202,-73.598398,5198 Rue Hutchison,"Middle Eastern,Moroccan,Turkish,Mediterranean,Persian,Halal",https://www.restomontreal.ca/resto/rumi-mile-end/1982/en/
494,Kyo Bar Japonais,45.505468,-73.557723,711 Côte de la Place d'Armes,"Japanese,Sushi,Asian,Ramen,Poke Bowl",https://www.restomontreal.ca/resto/kyo-bar-japonais-old-montreal/6613/en/
495,Tropikàl,45.480359,-73.579076,3426 Rue Notre-Dame O,"Caribbean,African,Latin American,Market,Grill,Vegetarian",https://www.restomontreal.ca/resto/tropikal-saint-henri/14309/en/
496,Robin des Bois,45.525151,-73.569769,3933 Avenue du Parc la Fontaine,"Café,Market,Comfort Food,Salads,Healthy,Vegetarian",https://www.restomontreal.ca/resto/robin-des-bois-le-plateau/1881/en/
497,ZIBO! Restaurant-Bar,45.562037,-73.746304,245 Promenade du Centropolis,"Californian,Grill,Salads,Pasta,Pizza,Burgers",https://www.restomontreal.ca/resto/zibo-restaurant-bar-chomedey/2201/en/
498,Ristorante San Marzano,45.638167,-73.579526,11935 Avenue Rita-Levi-Montalcini,"Italian,Pasta,Pizza,Mediterranean",https://www.restomontreal.ca/resto/ristorante-san-marzano-rdp-pointe-aux-trembles/3605/en/
499,L'Ours Caverne Culinaire,45.420516,-73.495392,200 Rue Ste-Marie,"Pizza,Smokehouse,Burgers,Pasta,Bistro",https://www.restomontreal.ca/resto/lours-caverne-culinaire-la-prairie/11433/en/
500,Portovino Ristorante,45.55763,-73.725503,1160 Boulevard le Corbusier,"Italian,Seafood/Fish,Pizza,Pasta,French,Grill",https://www.restomontreal.ca/resto/portovino-ristorante-laval-des-rapides/14540/en/
501,Casa Galicia,45.516671,-73.566597,2087 Rue Saint-Denis,"Spanish,Seafood/Fish,Tapas,Mussels,Vegetarian",https://www.restomontreal.ca/resto/casa-galicia-latin-quarter/192/en/
502,Sahib,45.459279,-73.82361,225B Boulevard Hymus,Indian,https://www.restomontreal.ca/resto/sahib-pointe-claire/1810/en/
503,TABOO Cuisine Rebelle,45.82693,-73.424434,352 Boulevard L'Ange-Gardien,"Burgers,Tartare,Poutine,Salads,Tapas,Comfort Food",https://www.restomontreal.ca/resto/taboo-cuisine-rebelle-lassomption/6933/en/
504,Elio Pizzeria Ristorante,45.532008,-73.602588,351 Rue Bellechasse,"Italian,Pizza,Pasta,Gluten-free Options",https://www.restomontreal.ca/resto/elio-pizzeria-ristorante-rosemont-la-petite-patrie/720/en/
505,Shoji Sushi,45.47909,-73.477701,2035A Rue Victoria,"Japanese,Sushi,Fusion,Grill,Asian,Tartare",https://www.restomontreal.ca/resto/shoji-sushi-saint-lambert/2116/en/
506,Le Balthazar,45.446726,-73.436834,9180 Boulevard Leduc,"Pub Food,Burgers,Tartare,Fish & Chips,Chicken Wings,Sandwiches",https://www.restomontreal.ca/resto/le-balthazar-brossard/9365/en/
507,La Maison Verte,45.471404,-73.877779,16981 Boulevard Gouin O,"Market,French,Tartare,Bistro,Seafood/Fish,Mussels",https://www.restomontreal.ca/resto/la-maison-verte-lile-bizard-sainte-genevieve/1818/en/
508,SPANEL CRÊPES ET GOURMETS,45.486653,-73.569336,1960 Rue Notre-Dame O,"Crêpes,Café,Breakfast,Gluten-free Options",https://www.restomontreal.ca/resto/spanel-griffintown/7130/en/
509,Kiyomi,45.561799,-73.745524,145 Promenade du Centropolis,"Tapas,Fusion,Korean,American,Asian",https://www.restomontreal.ca/resto/kiyomi-chomedey/7161/en/
510,Sushi Soku,45.699186,-73.655155,1274 Boulevard des Seigneurs,"Sushi,Japanese,Asian,Tartare,Poke Bowl,Grill",https://www.restomontreal.ca/resto/sushi-soku-terrebonne-lachenaie/6072/en/
511,Portus 360,45.499742,-73.562627,777 Boulevard Robert-Bourassa,"Portuguese,Tapas,Grill,Seafood/Fish",https://www.restomontreal.ca/resto/portus-360-downtown/1243/en/
512,Restaurant Jacques-Cartier,45.507782,-73.553577,444 Place Jacques-Cartier,"Italian,Pizza,Pasta,Salads,Seafood/Fish",https://www.restomontreal.ca/resto/restaurant-jacques-cartier-old-montreal/4284/en/
513,YOSO,45.581187,-73.703911,1595-B Boulevard Des Laurentides,"Creative,Asian,Japanese",https://www.restomontreal.ca/resto/yoso-pont-viau/17334/en/
514,Domaine Bonaventure - Sucrerie,45.675103,-73.972305,15400 Rue Charles,"Sugar Shack,Regional",https://www.restomontreal.ca/resto/domaine-bonaventure-sucrerie-mirabel/10633/en/
515,Moghel Tandoori,45.566606,-73.449138,2770 Boulevard Jacques-Cartier E,"Indian,Halal,Vegetarian",https://www.restomontreal.ca/resto/moghel-tandoori-longueuil/3180/en/
516,Bleu Moutarde,45.56919,-73.199424,965 Rue Richelieu,"Bistro,French,Market,Tartare,Grill,Seafood/Fish",https://www.restomontreal.ca/resto/bleu-moutarde-beloeil/3200/en/
517,Lucille's Oyster Dive,45.474891,-73.623736,5669 Avenue de Monkland,"Seafood/Fish,Grill,Fish & Chips,Tartare,Burgers,Steakhouse",https://www.restomontreal.ca/resto/lucilles-oyster-dive-monkland-village/3197/en/
518,Sawadika Festin Thailandais,45.510376,-73.686589,1800 Boulevard de la Côte-Vertu,"Thai,Szechuan,Vietnamese,Asian,Chinese,Fusion",https://www.restomontreal.ca/resto/sawadika-festin-thailandais-ville-saint-laurent/4724/en/
519,Le Uptown,45.505369,-73.556061,56 Rue Notre Dame O,"African,Grill,Poutine,Sandwiches,Chicken Wings,Gluten-free Options",https://www.restomontreal.ca/resto/le-uptown-old-montreal/17963/en/
520,Les Fous-Braques,45.739604,-73.611405,760 Montée Masson,"Tartare,Burgers,Comfort Food,Bistro,Poutine,Fish & Chips",https://www.restomontreal.ca/resto/les-fous-braques-mascouche/11037/en/
521,L'Atelier Sushi,45.639268,-73.84178,6 Rue Turgeon,"Sushi,Asian,Fusion,Poke Bowl,Tapas",https://www.restomontreal.ca/resto/latelier-sushi-sainte-therese/13031/en/
522,New Birbante,45.524948,-73.59739,5386 Boulevard St-Laurent,"Italian,Mediterranean",https://www.restomontreal.ca/resto/birbante-mile-end/19732/en/
523,Frite Alors!,45.515245,-73.564559,1710 Rue Saint-Denis,"Comfort Food,Casse-Croute (Snack Bar),Poutine,Burgers,Sandwiches,Salads",https://www.restomontreal.ca/resto/frite-alors-latin-quarter/751/en/
524,Duc de Lorraine,45.494514,-73.618396,5002 Chemin de la Cote-des-Neiges,"Desserts & Sweets,Pastries,Café,Bistro,French,Comfort Food",https://www.restomontreal.ca/resto/duc-de-lorraine-cote-des-neiges/6648/en/
525,Mango Bay,45.495183,-73.576188,1236 Rue Mackay,"Caribbean,Exotic,Jamaican",https://www.restomontreal.ca/resto/mango-bay-downtown/1292/en/
526,Calvi,45.56312,-73.744751,2940 Avenue Pierre-Péladeau,"Italian,Mediterranean,Seafood/Fish",https://www.restomontreal.ca/resto/calvi-chomedey/2673/en/
527,Allô mon Coco,45.449438,-73.608902,6817 Boulevard Newman,"Breakfast,Salads,Burgers,Grill,Crêpes,Sandwiches",https://www.restomontreal.ca/resto/allo-mon-coco-lasalle/10348/en/
528,Le Millen,45.558956,-73.658847,1185 Rue Fleury E,"French,Creative,Bistro,Market,Regional,Gluten-free Options",https://www.restomontreal.ca/resto/le-millen-ahuntsic-cartierville/10434/en/
529,Côba Sushi,45.517068,-73.597802,1124 Avenue Laurier O,"Sushi,Japanese,Asian,Contemporary/Modern,Tapas,Grill",https://www.restomontreal.ca/resto/coba-sushi-mile-end/1522/en/
530,Rasoï Bar,45.480331,-73.579902,3459 Rue Notre-Dame O,Bar,https://www.restomontreal.ca/resto/rasoi-bar-saint-henri/17284/en/
531,FireGrill,45.499959,-73.575068,1490 Rue Stanley,"Steakhouse,Grill,Seafood/Fish,Gluten-free Options",https://www.restomontreal.ca/resto/firegrill-downtown/2061/en/
532,Les assoiffés,45.499991,-73.508565,20 Rue Prince-Arthur,"Pub Food,Bistro,Vegetarian,Burgers,Salads,Gluten-free Options",https://www.restomontreal.ca/resto/les-assoiffes-saint-lambert/12389/en/
533,La Molisana,45.557902,-73.659039,1014 Rue Fleury E,"Italian,Pizza,Pasta,Mussels",https://www.restomontreal.ca/resto/la-molisana-ahuntsic-cartierville/2342/en/
534,The Farsides,45.447296,-73.431265,3100 Rue de l'Éclipse,"Thai,Hawaiian,Fusion,Grill,Seafood/Fish,Burgers",https://www.restomontreal.ca/resto/the-farsides-brossard/17669/en/
